STOP_ID,latitude,STOP_NAME,longitude,TICKETZONE,ROUTEUSSP,geometry,
18730,-37.744359,134-Merribell Ave/Nicholson St (Coburg),144.977728,1,1,c(321826.478642279, 5820624.49554915)
18732,-37.811375,44-Deepdene Park/Whitehorse Rd (Balwyn),145.068671,1,109,c(329993.507971851, 5813357.45770125)
18733,-37.81175,45-Hardwicke St/Whitehorse Rd (Balwyn),145.071785,1,109,c(330268.50562829, 5813321.50543475)
18734,-37.812242,46-Balwyn Cinema/Whitehorse Rd (Balwyn),145.07593,1,109,c(330634.501579547, 5813274.44040749)
18735,-37.812919,47-Balwyn Rd/Whitehorse Rd (Balwyn),145.081524,"1,2",109,c(331128.504872171, 5813209.44759338)
18736,-37.813199,48-Balwyn Shopping Centre/Whitehorse Rd (Balwyn),145.083788,"1,2",109,c(331328.450849475, 5813182.45931317)
18737,-37.81369,49-Northcote Ave/Whitehorse Rd (Balwyn),145.087956,"1,2",109,c(331696.490423333, 5813135.49961263)
18738,-37.814564,51-Narrak Rd/Whitehorse Rd (Mont Albert),145.09517,"1,2",109,c(332333.530376884, 5813051.49181903)
18781,-37.841755,134-Orrong Rd/Toorak Rd (Toorak),145.014048,1,58,c(325256.467068333, 5809885.5152521)
18782,-37.842166,135-Woorigoleen Rd/Toorak Rd (Toorak),145.017583,1,58,c(325568.497357786, 5809846.51608494)
18783,-37.842461,136-Irving Rd/Toorak Rd (Toorak),145.020086,1,58,c(325789.458437972, 5809818.45328801)
18784,-37.842844,137-Kooyong Rd/Toorak Rd (Toorak),145.023065,1,58,c(326052.50411593, 5809781.51434733)
18785,-37.843231,138-Moonga Rd/Toorak Rd (Toorak),145.026248,1,58,c(326333.518221466, 5809744.49748791)
18786,-37.843615,139-Glenbervie Rd/Toorak Rd (Toorak),145.029817,1,58,c(326648.481465778, 5809708.51754211)
18789,-37.797113,112-Lygon St/Elgin St (Carlton),144.967159,1,"6,1",c(321022.465292911, 5814750.45270562)
18790,-37.794127,113-Lytton St/Lygon St (Carlton),144.968025,1,"6,1",c(321091.49669289, 5815083.45664911)
18791,-37.792689,114-Princes St/Lygon St (Carlton North),144.968269,1,"6,1",c(321109.520637235, 5815243.48483994)
18792,-37.78958,115-Melbourne Cemetery/Lygon St (Carlton North),144.968797,1,"6,1",c(321148.527950966, 5815589.4934737)
18793,-37.78737,116-Fenwick St/Lygon St (Carlton North),144.969186,1,"6,1",c(321177.438097019, 5815835.46592419)
18794,-37.784036,117-Richardson St/Lygon St (Carlton North),144.969732,1,"6,1",c(321217.496062021, 5816206.47546474)
18795,-37.781924,118-Pigdon St/Lygon St (Carlton North),144.970074,1,"6,1",c(321242.526509283, 5816441.48216095)
18899,-37.845278,26-Alfred Hospital/Commercial Rd (South Yarra),144.982225,1,72,c(322464.531523365, 5809434.52666729)
18918,-37.84563,27-Punt Rd/Commercial Rd (South Yarra),144.984863,1,72,c(322697.513024553, 5809400.48207599)
18923,-37.845899,28-Braille Library/Commercial Rd (South Yarra),144.987413,1,72,c(322922.532576038, 5809375.47160794)
18931,-37.846314,29-Porter St/Commercial Rd (South Yarra),144.990583,1,72,c(323202.448300033, 5809335.43059721)
18933,-37.846541,30-Prahran Market/Commercial Rd (South Yarra),144.992271,1,72,c(323351.527073285, 5809313.43958487)
18934,-37.84676,31-Chapel St/Commercial Rd (South Yarra),144.994015,1,72,c(323505.527697618, 5809292.43094668)
18935,-37.847293,32-Surrey Rd/Malvern Rd (South Yarra),144.997807,1,72,c(323840.455084511, 5809240.45167894)
18936,-37.847653,33-Francis St/Malvern Rd (South Yarra),145.000434,1,72,c(324072.459406619, 5809205.45861819)
18937,-37.848004,34-Williams Rd/Malvern Rd (South Yarra),145.00305,1,72,c(324303.489751598, 5809171.4374374)
18938,-37.84848,35-Mathoura Rd/Malvern Rd (Toorak),145.006685,1,72,c(324624.459233463, 5809125.45279532)
18939,-37.848923,36-A'Beckett St/Malvern Rd (Toorak),145.009992,1,72,c(324916.489090949, 5809082.50577148)
18940,-37.849193,37-Orrong Rd/Malvern Rd (Toorak),145.012076,1,72,c(325100.502602116, 5809056.45235223)
18941,-37.849618,38-Clendon Rd/Malvern Rd (Toorak),145.01536,1,72,c(325390.457421423, 5809015.44281914)
18942,-37.850052,39-Irving Rd/Malvern Rd (Toorak),145.018679,1,72,c(325683.53423278, 5808973.49035944)
18943,-37.850403,40-Kooyong Rd/Malvern Rd (Toorak),145.021306,1,72,c(325915.4996987, 5808939.44445022)
18944,-37.850763,41-Albany Rd/Malvern Rd (Toorak),145.023956,1,72,c(326149.511270824, 5808904.43628767)
18945,-37.851052,42-Lauriston Girls School/Malvern Rd (Toorak),145.026141,1,72,c(326342.460660518, 5808876.43656854)
18946,-37.851547,43-Glenferrie Rd/Malvern Rd (Toorak),145.029867,1,72,c(326671.461572399, 5808828.43507003)
18947,-37.851897,44-Plant St/Malvern Rd (Malvern),145.032495,1,72,c(326903.509890964, 5808794.47349103)
18948,-37.852259,45-Elizabeth St/Malvern Rd (Malvern),145.035304,1,72,c(327151.484985518, 5808759.50190021)
18949,-37.852784,46-Meredith St/Malvern Rd (Malvern),145.039234,1,72,c(327498.504386413, 5808708.51998575)
18950,-37.853128,47-Tooronga Rd/Malvern Rd (Malvern),145.041987,1,72,c(327741.521998721, 5808675.434955)
18951,-37.853556,48-Edgar St/Malvern Rd (Malvern),145.045555,1,72,c(328056.443566128, 5808634.51700817)
18952,-37.8539,49-Kenilworth Gr/Malvern Rd (Malvern),145.04832,1,72,c(328300.532757546, 5808601.43814082)
18953,-37.854322,50-Burke Rd/Malvern Rd (Malvern),145.051491,1,72,c(328580.496994022, 5808560.43878645)
18954,-37.852854,51-Gardiner Railway Station/Burke Rd (Hawthorn East),145.052677,1,72,c(328681.464334388, 5808725.51287226)
18955,-37.849778,52-Harris Ave/Burke Rd (Hawthorn East),145.053042,1,72,c(328706.46276081, 5809067.5141368)
18956,-37.848171,53-Faircroft Ave/Burke Rd (Hawthorn East),145.053392,1,72,c(328733.533102527, 5809246.48175351)
18957,-37.8458,54-Toorak Rd/Burke Rd (Glen Iris),145.053874,1,72,c(328770.463373804, 5809510.46003855)
18958,-37.843796,55-Middle Rd/Burke Rd (Hawthorn East),145.054245,1,72,c(328798.456504955, 5809733.51755641)
18959,-37.841856,56-Anderson Rd/Burke Rd (Hawthorn East),145.054626,1,72,c(328827.518421442, 5809949.48336466)
18960,-37.840257,57-Pine Ave/Burke Rd (Hawthorn East),145.054941,1,72,c(328851.541228674, 5810127.49732127)
18961,-37.838164,58-Leura Gr/Burke Rd (Hawthorn East),145.055336,1,72,c(328881.456641468, 5810360.47544143)
18962,-37.835415,59-Pleasant Rd/Burke Rd (Hawthorn East),145.055829,1,72,c(328918.476180043, 5810666.41687121)
18963,-37.833717,60-Campbell Rd/Burke Rd (Hawthorn East),145.056158,1,72,c(328943.511070997, 5810855.44150057)
18964,-37.83157,61-Riversdale Rd/Burke Rd (Hawthorn East),145.056566,1,72,c(328974.481072287, 5811094.42537562)
18965,-37.830204,62-Camberwell Shopping Centre/755 Burke Rd (Hawthorn East),145.056818,1,72,c(328993.505440942, 5811246.46710873)
18966,-37.828219,63-Prospect Hill Rd/Burke Rd (Hawthorn East),145.057222,1,72,c(329024.472547786, 5811467.4763506)
19041,-37.823434,65-Victoria Rd/Burke Rd (Camberwell),145.058313,1,72,c(329109.439058163, 5812000.43260616)
18967,-37.826054,64-Camberwell Station/Burke Rd (Hawthorn East),145.057631,1,72,c(329055.470134731, 5811708.45823515)
18968,-37.823583,65-Victoria Rd/Burke Rd (Hawthorn East),145.05806,1,72,c(329087.538311871, 5811983.44192727)
18969,-37.821481,66-Rathmines Rd/Burke Rd (Hawthorn East),145.058467,1,72,c(329118.496062734, 5812217.42852563)
18970,-37.818589,67-Camberwell Girls Grammar/Burke Rd (Hawthorn East),145.059054,1,72,c(329163.510357607, 5812539.41901318)
18971,-37.815992,68-Mont Albert Rd/Burke Rd (Kew),145.059542,1,72,c(329200.462835667, 5812828.48054267)
18972,-37.814132,69-Sackville St/Burke Rd (Kew),145.059875,1,72,c(329225.489688608, 5813035.48677238)
18973,-37.870059,36-St Kilda Primary School/Brighton Rd (Balaclava),144.988415,1,67,c(323068.479709306, 5806696.42693562)
18974,-37.871771,37-Chapel St/Brighton Rd (Balaclava),144.989494,1,67,c(323167.481775556, 5806508.49003442)
18975,-37.8728,38-Brunning St/Brighton Rd (Balaclava),144.990125,1,67,c(323225.453812049, 5806395.50478148)
18976,-37.876636,39-Glen Eira Rd/Brighton Rd (Balaclava),144.992545,1,67,c(323447.475275295, 5805974.42203352)
18977,-37.878886,40-Scott St/Brighton Rd (Balaclava),144.993973,1,67,c(323578.458109686, 5805727.44927124)
18978,-37.880798,41-Coleridge St/Brighton Rd (Balaclava),144.995161,1,67,c(323687.508451594, 5805517.52190598)
18979,-37.882957,42-Hotham St/Brighton Rd (Balaclava),144.996501,1,67,c(323810.503214424, 5805280.4858841)
18980,-37.8838,43-Brighton Rd/Glenhuntly Rd (Elsternwick),144.997842,1,67,c(323930.45203957, 5805189.47021348)
18981,-37.88415,44-Elsternwick Railway Station/Glenhuntly Rd (Elsternwick),145.00038,1,67,c(324154.498996111, 5805155.41936926)
18982,-37.884613,45-Elsternwick Shopping Centre/Glenhuntly Rd (Elsternwick),145.003812,1,67,c(324457.458673994, 5805110.51242901)
18983,-37.884862,46-Orrong Rd/Glenhuntly Rd (Elsternwick),145.005705,1,67,c(324624.524315848, 5805086.4397651)
18984,-37.885271,47-Shoobra Rd/Glenhuntly Rd (Elsternwick),145.009127,1,67,c(324926.463800822, 5805047.47893096)
18985,-37.885649,48-Parkside St/Glenhuntly Rd (Elsternwick),145.012267,1,67,c(325203.505060445, 5805011.42365449)
18986,-37.885963,49-Kooyong Rd/Glenhuntly Rd (Elsternwick),145.014874,1,67,c(325433.502807558, 5804981.471948)
18987,-37.886391,50-Royal Pde/Glenhuntly Rd (Caulfield),145.01833,1,67,c(325738.454899225, 5804940.43766404)
19000,-37.911078,67-Rogers Ave/Hawthorn Rd (Brighton East),145.017531,1,64,c(325726.44670448, 5802199.5116003)
19001,-37.908517,66-Union St/Hawthorn Rd (Brighton East),145.017964,1,64,c(325758.478735622, 5802484.51173492)
19002,-37.90637,65-Davey Ave/Hawthorn Rd (Brighton East),145.018329,1,64,c(325785.508325034, 5802723.43416794)
19003,-37.903782,64-Taylor St/Hawthorn Rd (Brighton East),145.018808,1,64,c(325821.502241826, 5803011.5152286)
19004,-37.901196,63-North Rd/Hawthorn Rd (Brighton East),145.019332,1,64,c(325861.492859535, 5803299.4509322)
19005,-37.898969,62-Gardenvale Rd/Hawthorn Rd (Caulfield South),145.019801,1,64,c(325897.489888566, 5803547.4452478)
19006,-37.896552,61-Stone St/Hawthorn Rd (Caulfield South),145.020253,1,64,c(325931.522367484, 5803816.49949641)
19007,-37.894881,60-Dover St/Hawthorn Rd (Caulfield South),145.020548,1,64,c(325953.544144332, 5804002.47898554)
19008,-37.89304,59-Princes Park/Hawthorn Rd (Caulfield South),145.020904,1,64,c(325980.485560353, 5804207.42663168)
19009,-37.889608,58-Sycamore St/Hawthorn Rd (Caulfield South),145.021553,1,64,c(326029.484661139, 5804589.48129218)
19010,-37.886661,57-Glenhuntly Rd/Hawthorn Rd (Caulfield),145.022098,1,64,c(326070.480898824, 5804917.51146204)
19011,-37.884838,56-Briggs St/Hawthorn Rd (Caulfield),145.022443,1,64,c(326096.52199039, 5805120.45068687)
19012,-37.882449,55-Sylverly Gr/Hawthorn Rd (Caulfield North),145.022916,1,64,c(326132.505212762, 5805386.42668433)
19013,-37.879934,54-Glen Eira Rd/Hawthorn Rd (Caulfield North),145.023404,1,64,c(326169.524975857, 5805666.41226012)
19014,-37.877212,53-Northcote Ave/Hawthorn Rd (Caulfield North),145.02392,1,64,c(326208.499312802, 5805969.42909475)
19015,-37.874939,52-Halstead St/Hawthorn Rd (Caulfield North),145.024356,1,64,c(326241.503046126, 5806222.4617609)
19016,-37.872441,51-Balaclava Rd/Hawthorn Rd (Caulfield North),145.02482,1,"64,16",c(326276.450419758, 5806500.52380669)
19017,-37.869514,50-Inkerman Rd/Hawthorn Rd (Caulfield North),145.02541,1,"64,16",c(326321.47704867, 5806826.41784263)
19018,-37.86769,49-Arthur St/Hawthorn Rd (Caulfield North),145.025754,1,"64,16",c(326347.468198197, 5807029.46380292)
19019,-37.865428,48-Hawthorn Rd/Dandenong Rd (Caulfield North),145.025769,1,64,c(326343.455379969, 5807280.49294181)
19023,-37.864558,44-Bailey Ave/Dandenong Rd (Armadale),145.023837,1,64,c(326171.472460122, 5807373.43932563)
19024,-37.863789,43-Egerton Rd/Dandenong Rd (Armadale),145.02205,1,64,c(326012.454757602, 5807455.43677553)
19025,-37.86257,42-Kooyong Rd/Dandenong Rd (Armadale),145.019219,1,64,c(325760.529231187, 5807585.42685122)
19026,-37.861923,41-Cantala Ave/Dandenong Rd (Armadale),145.017735,1,64,c(325628.457565389, 5807654.45082534)
19027,-37.860825,40-Wattletree Rd/Dandenong Rd (Armadale),145.015173,1,"64,5",c(325400.463855488, 5807771.50032207)
19028,-37.86027,38-Orrong Rd/Dandenong Rd (Prahran),145.011119,1,"64,5",c(325042.499470639, 5807825.48626497)
19029,-37.859804,37-Lansdowne Rd/Dandenong Rd (St Kilda East),145.007528,1,"64,5",c(324725.470343681, 5807870.45942485)
19030,-37.859395,36-Closeburn Ave/Dandenong Rd (St Kilda East),145.004641,1,"64,5",c(324470.491261897, 5807910.42289585)
19031,-37.859063,35-Williams Rd/Dandenong Rd (Prahran),145.00207,1,"64,5",c(324243.532443337, 5807942.41578402)
19032,-37.858413,34-The Avenue/Dandenong Rd (Windsor),144.997234,1,"64,5",c(323816.49964249, 5808005.4313598)
19033,-37.858206,33-Hornby St/Dandenong Rd (Windsor),144.995694,1,"64,5",c(323680.54295832, 5808025.49313337)
19034,-37.857494,32-Chapel St/Dandenong Rd (Windsor),144.991996,1,"64,5",c(323353.470749511, 5808097.50543214)
19035,-37.856154,31-Queens Way/Queens Way (Windsor),144.987406,1,"64,5",c(322946.434773465, 5808237.50247459)
19036,-37.810873,70-Cotham Rd/Burke Rd (Kew),145.060596,1,72,c(329281.459558235, 5813398.43704502)
19037,-37.814108,69-Peverill St/Burke Rd (Balwyn),145.060069,1,72,c(329242.516087365, 5813038.49800492)
19038,-37.815743,68-Mont Albert Rd/Burke Rd (Camberwell),145.059765,1,72,c(329219.536911038, 5812856.52216369)
19039,-37.818492,67-Camberwell Girls Grammar/Burke Rd (Canterbury),145.059227,1,72,c(329178.497732518, 5812550.49087033)
19040,-37.821287,66-Canterbury Rd/Burke Rd (Camberwell),145.058722,1,72,c(329140.483666642, 5812239.4264381)
19042,-37.825967,64-Camberwell Station/Burke Rd (Camberwell),145.057815,1,72,c(329071.460879096, 5811718.45224052)
19043,-37.828024,63-Prospect Hill Rd/Burke Rd (Camberwell),145.057432,1,72,c(329042.495007126, 5811489.49210264)
19044,-37.831088,61-Camberwell Junction/Burke Rd (Camberwell),145.05684,1,72,c(328997.479315076, 5811148.41664647)
19045,-37.83389,60-Reserve Rd/Burke Rd (Camberwell),145.056312,1,72,c(328957.47106651, 5810836.51909408)
19046,-37.835193,59-Seymour Gr/Burke Rd (Camberwell),145.056074,1,72,c(328939.538739071, 5810691.50363227)
19047,-37.838086,58-Currajong Ave/Burke Rd (Camberwell),145.05552,1,72,c(328897.465460161, 5810369.46123108)
19048,-37.840062,57-Pine Ave/Burke Rd (Camberwell),145.055139,1,72,c(328868.514421826, 5810149.50181603)
19049,-37.841589,56-Anderson Rd/Burke Rd (Camberwell),145.054849,1,72,c(328846.510612473, 5809979.52294754)
19050,-37.843656,55-Middle Rd/Burke Rd (Camberwell),145.054454,1,72,c(328816.538131208, 5809749.43070822)
19051,-37.845614,54-Toorak Rd/Burke Rd (Camberwell),145.054084,1,72,c(328788.501207162, 5809531.48786735)
19052,-37.847878,53-Howitt St/Burke Rd (Glen Iris),145.053627,1,72,c(328753.540197753, 5809279.42032443)
19053,-37.849881,52-Bickleigh St/Burke Rd (Glen Iris),145.053222,1,72,c(328722.539045539, 5809056.41949807)
19054,-37.852962,51-Gardiner Station/Burke Rd (Glen Iris),145.052663,1,72,c(328680.479055296, 5808713.50285202)
19056,-37.854418,50-Glenarm Rd/Malvern Rd (Glen Iris),145.051295,1,72,c(328563.488596839, 5808549.43303147)
19057,-37.854046,49-Belmont Ave/Malvern Rd (Glen Iris),145.048418,1,72,c(328309.486870529, 5808585.41957063)
19058,-37.853732,48-Edgar St/Malvern Rd (Glen Iris),145.045835,1,72,c(328081.495057016, 5808615.50863791)
19059,-37.853304,47-Tooronga Rd/Malvern Rd (Glen Iris),145.0423,1,72,c(327769.488670839, 5808656.47865191)
19060,-37.852859,46-Shaftesbury Ave/Malvern Rd (Malvern),145.038823,1,72,c(327462.506664198, 5808699.44091454)
19061,-37.852434,45-Elizabeth St/Malvern Rd (Malvern),145.035504,1,72,c(327169.504919345, 5808740.45806481)
19062,-37.852084,44-Plant St/Malvern Rd (Malvern),145.032888,1,72,c(326938.504847839, 5808774.44910196)
19063,-37.851723,43-Glenferrie Rd/Malvern Rd (Malvern),145.030204,1,72,c(326701.521902223, 5808809.5264359)
19064,-37.85119,42-Lauriston Girls School/Malvern Rd (Armadale),145.026331,1,72,c(326359.477592688, 5808861.46964832)
19065,-37.850879,41-Murray St/Malvern Rd (Malvern),145.023918,1,72,c(326146.45784969, 5808891.49274579)
19066,-37.850588,40-Kooyong Rd/Malvern Rd (Toorak),145.021596,1,72,c(325941.465630785, 5808919.45252885)
19067,-37.850156,39-Densham Rd/Malvern Rd (Toorak),145.018426,1,72,c(325661.511076822, 5808961.47277014)
19068,-37.849793,38-Clendon Rd/Malvern Rd (Toorak),145.015617,1,72,c(325413.487178761, 5808996.49909871)
19069,-37.84938,37-Orrong Rd/Malvern Rd (Toorak),145.012469,1,72,c(325135.535118184, 5809036.43611733)
19070,-37.886809,51-Hawthorn Rd/Glenhuntly Rd (Caulfield),145.021764,1,67,c(326041.448330695, 5804900.46972711)
19071,-37.88711,52-Jasmine St/Glenhuntly Rd (Caulfield),145.024121,1,67,c(326249.467891412, 5804871.45807352)
19072,-37.887451,53-Glenhuntly Tram Depot/Glenhuntly Rd (Caulfield),145.02675,1,67,c(326481.450308004, 5804838.51207226)
19073,-37.887673,54-Bambra Rd/Glenhuntly Rd (Caulfield),145.028689,1,67,c(326652.490775391, 5804817.49033738)
19074,-37.887931,55-Fallon St/Glenhuntly Rd (Caulfield),145.030615,1,67,c(326822.474965139, 5804792.43622954)
19075,-37.888251,56-Kambrook Rd/Glenhuntly Rd (Caulfield),145.033085,1,67,c(327040.472164704, 5804761.50734996)
19076,-37.888502,57-Clarke Ave/Glenhuntly Rd (Caulfield East),145.035114,1,67,c(327219.491668837, 5804737.4150437)
19077,-37.888794,58-Booran Rd/Glenhuntly Rd (Caulfield East),145.03754,1,67,c(327433.525612128, 5804709.50970516)
19078,-37.889132,60-Glenhuntly Shops/Glenhuntly Rd (Caulfield East),145.040476,1,67,c(327692.494624119, 5804677.42758417)
19079,-37.889307,61-Glenhuntly Railway Station/Glenhuntly Rd (Caulfield South),145.041824,1,67,c(327811.465927885, 5804660.50333715)
19081,-37.889633,62-Grange Rd/Glenhuntly Rd (Caulfield East),145.04459,1,67,c(328055.461292516, 5804629.43436053)
18512,-37.772452,34-Maribyrnong Rd/Ascot Vale Rd (Moonee Ponds),144.924024,1,82,c(317163.511242964, 5817403.49185109)
18513,-37.77234,35-Moore St/Maribyrnong Rd (Moonee Ponds),144.921234,1,82,c(316917.484716675, 5817410.45554847)
18514,-37.772026,36-Bayview Tce/Maribyrnong Rd (Moonee Ponds),144.918257,1,82,c(316654.500925407, 5817439.46622866)
18515,-37.771812,37-Union Rd/Maribyrnong Rd (Moonee Ponds),144.916322,1,82,c(316483.531024089, 5817459.41866464)
18516,-37.771415,38-Ferguson St/Maribyrnong Rd (Ascot Vale),144.912757,1,"82,57",c(316168.52359254, 5817496.46709816)
18517,-37.771027,39-Bowen St/Maribyrnong Rd (Moonee Ponds),144.90918,1,"82,57",c(315852.488556809, 5817532.48150335)
18518,-37.770631,40-Epsom Rd/Maribyrnong Rd (Ascot Vale),144.905672,1,"82,57",c(315542.518606406, 5817569.50911177)
18519,-37.77187,37-Maribyrnong Rd/Union Rd (Ascot Vale),144.91607,1,57,c(316461.477376956, 5817452.4923666)
18520,-37.773703,36-St Leonards Rd/Union Rd (Ascot Vale),144.91578,1,57,c(316440.453214656, 5817248.51818879)
18521,-37.776103,35-Munro St/Union Rd (Ascot Vale),144.915395,1,57,c(316412.494023068, 5816981.44000908)
18522,-37.778627,34-Burrowes St/Union Rd (Ascot Vale),144.914949,1,57,c(316379.453809596, 5816700.48927418)
18524,-37.782668,32-Sandown Rd/Epsom Rd (Ascot Vale),144.916675,1,57,c(316541.450786375, 5816255.46296291)
18525,-37.784425,31-Racing Victoria/400 Epsom Rd (Flemington),144.918204,1,57,c(316680.477306306, 5816063.49787166)
18526,-37.785913,30-Flemington Racecourse/Epsom Rd (Flemington),144.919786,1,57,c(316823.462538676, 5815901.47470593)
18527,-37.787446,29-Flemington Racecourse/Racecourse Rd (Flemington),144.921889,1,57,c(317012.459840313, 5815735.48632704)
18528,-37.787741,28-Smithfield Rd/Racecourse Rd (Flemington),144.925345,1,57,c(317317.538722611, 5815709.50998159)
18529,-37.788074,26-Newmarket Plaza/Racecourse Rd (Kensington),144.92839,1,57,c(317586.50347556, 5815678.50555828)
18530,-37.788354,25-Wellington St/Racecourse Rd (Flemington),144.93046,1,57,c(317769.483953864, 5815651.47431911)
18531,-37.788507,24-Collett St/Racecourse Rd (Kensington),144.933522,1,57,c(318039.524305714, 5815640.46283029)
18532,-37.788749,23-Stubbs St/Racecourse Rd (Flemington),144.93548,1,57,c(318212.549110343, 5815617.4183665)
18533,-37.789209,22-Boundary Rd/Racecourse Rd (North Melbourne),144.940145,1,57,c(318624.47703706, 5815575.43888143)
18536,-37.793729,19-Abbotsford St Interchange/Abbotsford St (North Melbourne),144.947163,1,57,c(319253.500514719, 5815087.47158706)
18537,-37.795246,18-Erskine St/Abbotsford St (North Melbourne),144.946803,1,57,c(319225.49831966, 5814918.43518606)
18538,-37.796719,17-Canning St/Abbotsford St (North Melbourne),144.946535,1,57,c(319205.505012036, 5814754.4705372)
18539,-37.797968,16-Haines St/Abbotsford St (North Melbourne),144.946319,1,57,c(319189.531303793, 5814615.45363312)
18540,-37.800672,15-Arden St/Abbotsford St (North Melbourne),144.945835,1,57,c(319153.492408303, 5814314.4584012)
18541,-37.802663,14-Abbotsford St/Queensberry St (North Melbourne),144.945802,1,57,c(319155.464674079, 5814093.46344616)
18543,-37.791414,23-Royal Park/Royal Park (Parkville),144.949294,1,58,c(319435.530900852, 5815348.47585584)
18544,-37.787878,24-Elliott Ave/Royal Park (Parkville),144.949619,1,58,c(319455.549907353, 5815741.48069827)
18545,-37.784383,25-State Netball Hockey Centre/Royal Park (Parkville),144.94867,1,58,c(319363.438239011, 5816127.46893827)
18546,-37.782375,26-Melbourne Zoo/Royal Park (Parkville),144.949282,1,58,c(319412.44738347, 5816351.46996433)
18547,-37.780872,27-Royal Park Station/Royal Park (Parkville),144.950925,1,58,c(319553.494268654, 5816521.42479478)
18548,-37.776917,28-Park St/Royal Park (Parkville),144.94949,1,58,c(319417.487908114, 5816957.52901251)
18549,-37.775814,29-Brunswick Rd/Royal Park (Parkville),144.948748,1,58,c(319349.452944069, 5817078.48517861)
18550,-37.772562,30-Union Square Shopping Centre/Grantham St (Brunswick West),144.949315,1,58,c(319391.477931192, 5817440.44797591)
18551,-37.770298,31-Dawson St/Grantham St (Brunswick West),144.949741,1,58,c(319423.481488428, 5817692.49139948)
18552,-37.769923,32-Foden St/Dawson St (Brunswick),144.947356,1,58,c(319212.485504913, 5817729.49778378)
18553,-37.769593,33-Daly St/Dawson St (Brunswick),144.944425,1,58,c(318953.523363518, 5817760.44870185)
18554,-37.767614,34-Smith St/Melville Rd (Brunswick West),144.943095,1,58,c(318831.520799285, 5817977.46443006)
18555,-37.764912,35-Victoria St/Melville Rd (Brunswick West),144.94368,1,58,c(318876.458282057, 5818278.4349162)
18556,-37.762162,36-Hope St/Melville Rd (Brunswick West),144.944154,1,58,c(318911.515152358, 5818584.50322324)
18557,-37.75874,37-Albion St/Melville Rd (Brunswick West),144.944771,1,58,c(318957.527534194, 5818965.42003829)
18558,-37.756764,38-Jacobs Reserve/Melville Rd (Brunswick West),144.945154,1,58,c(318986.454840359, 5819185.43386451)
18559,-37.754779,39-McGregor Ave/Melville Rd (Brunswick West),144.94555,1,58,c(319016.504122782, 5819406.47122255)
18560,-37.753429,40-Moreland Rd/Melville Rd (Brunswick West),144.945655,1,58,c(319022.444027392, 5819556.47729011)
18561,-37.749512,41-Woodlands Ave/Melville Rd (Pascoe Vale South),144.946354,1,58,c(319074.498448596, 5819992.47906142)
18562,-37.746611,42-Reynard St/Melville Rd (Pascoe Vale South),144.944334,1,58,c(318889.448144867, 5820310.47721514)
18563,-37.744122,43-Princes Tce/Melville Rd (Pascoe Vale South),144.944767,1,58,c(318921.541155328, 5820587.51273027)
18564,-37.741966,44-Brearley Pde/Melville Rd (Pascoe Vale South),144.945133,1,58,c(318948.516603659, 5820827.45623643)
18566,-37.794648,51-Balwyn Rd/Doncaster Rd (Balwyn North),145.084631,1,48,c(331360.477435896, 5815242.48139534)
18567,-37.794372,50-Dight Ave/Doncaster Rd (Balwyn North),145.080936,1,48,c(331034.485531534, 5815266.42628842)
18568,-37.793941,49-Buchanan Ave/Doncaster Rd (Balwyn North),145.077722,1,48,c(330750.487909507, 5815308.43667836)
18569,-37.793412,48-Osburn Ave/Doncaster Rd (Balwyn North),145.074567,1,48,c(330471.461591802, 5815361.42004649)
18570,-37.792727,47-North Balwyn Shopping Centre/Doncaster Rd (Balwyn North),145.070724,1,48,c(330131.49469815, 5815430.45086481)
18571,-37.793006,46-Wattle Ave/Doncaster Rd (Balwyn North),145.067401,1,48,c(329839.540566517, 5815393.44691176)
18573,-37.836632,26-Ferrars St/Park St (South Melbourne),144.956405,1,1,c(320171.498632476, 5810344.52230613)
18574,-37.7947,43-Kew High School/High St (Kew East),145.061349,1,48,c(329310.526432436, 5815194.43904412)
18575,-37.796324,42-Woodlands Ave/High St (Kew East),145.057672,1,48,c(328990.492244912, 5815007.50483333)
18576,-37.797966,41-Station St/High St (Kew East),145.053927,1,48,c(328664.522809874, 5814818.44549277)
18577,-37.798721,40-Harp Village/High St (Kew East),145.052192,1,48,c(328513.515765612, 5814731.4838329)
18578,-37.799564,39-Harp Rd/High St (Kew East),145.050273,1,48,c(328346.486469025, 5814634.41359331)
18579,-37.801316,38-Victoria Park/High St (Kew East),145.046172,1,48,c(327989.453747046, 5814432.46836869)
18580,-37.802582,37-Kew Cemetery/High St (Kew),145.042652,1,48,c(327682.497510557, 5814285.49825515)
18581,-37.803539,36-Gladstone St/High St (Kew),145.040014,1,48,c(327452.455034005, 5814174.43962749)
18582,-37.805012,35-Charles St/High St (Kew),145.035977,1,48,c(327100.454144219, 5814003.5217816)
18583,-37.80564,34-Union St/High St (Kew),145.034166,1,48,c(326942.461852821, 5813930.48027166)
18584,-37.806674,33-Kew Shopping Centre/High St (Kew),145.031311,1,48,c(326693.538566063, 5813810.44947524)
18588,-37.815756,25-Brook St/Church St (Hawthorn),145.020982,1,48,c(325805.506040796, 5812783.45393932)
18589,-37.817971,24-Hill St/Church St (Hawthorn),145.018753,1,48,c(325614.491149245, 5812533.5076602)
18591,-37.810726,65-Victoria St/Church St (Richmond),145.000624,1,78,c(324001.450842567, 5813303.44887395)
18592,-37.812592,64-Elizabeth St/Church St (Richmond),145.000165,1,78,c(323965.474883118, 5813095.52574173)
18593,-37.814318,63-Tweedie Pl/Church St (Richmond),144.99988,1,78,c(323944.475515167, 5812903.45970655)
18594,-37.815962,62-Highett St/Church St (Richmond),144.999574,1,78,c(323921.444638472, 5812720.45224995)
18595,-37.818729,61-Bridge Rd/Church St (Richmond),144.999079,1,78,c(323884.447299418, 5812412.48171893)
18596,-37.820302,60-Abinger St/Church St (Richmond),144.99881,1,78,c(323864.515172419, 5812237.42348546)
18597,-37.821838,59-St Ignatius Church/Church St (Richmond),144.998541,1,78,c(323844.496015029, 5812066.47973507)
18598,-37.824058,58-Gipps St/Church St (Richmond),144.998163,1,78,c(323816.503803187, 5811819.41956901)
18599,-37.825782,57-Swan St/Church St (Richmond),144.997821,1,78,c(323790.502486589, 5811627.46497688)
18601,-37.828972,55-Adelaide St/Church St (Cremorne),144.997269,1,78,c(323749.518658869, 5811272.4471419)
18602,-37.830331,54-Cotter St/Church St (Cremorne),144.997187,1,78,c(323745.528941457, 5811121.48969353)
18603,-37.832668,53-Howard St/Church St (Richmond),144.996794,1,78,c(323716.493029811, 5810861.41697498)
18605,-37.836364,51-Malcolm St/Chapel St (South Yarra),144.996342,1,78,c(323685.531457175, 5810450.44044818)
18606,-37.839648,50-Toorak Rd/Chapel St (South Yarra),144.995503,1,78,c(323619.505101823, 5810084.44186513)
18607,-37.841572,49-Palermo St/Chapel St (South Yarra),144.99528,1,78,c(323604.47966411, 5809870.51992669)
18608,-37.843833,48-Cliff St/Chapel St (South Yarra),144.994651,1,78,c(323554.493166228, 5809618.4385227)
18609,-37.846976,47-Commercial Rd/Chapel St (Prahran),144.994032,1,78,c(323507.531553544, 5809268.49425379)
18610,-37.849106,46-Chatham St/Chapel St (Prahran),144.993678,1,78,c(323481.472071493, 5809031.47374405)
18611,-37.851956,45-High St/Chapel St (Prahran),144.993283,1,78,c(323453.489719804, 5808714.46901458)
18612,-37.854102,44-Duke St/Chapel St (Windsor),144.992827,1,78,c(323418.509261202, 5808475.47755715)
18613,-37.85624,43-Windsor Railway Station/Chapel St (Windsor),144.992451,1,78,c(323390.512348791, 5808237.51521988)
18614,-37.857921,42-Dandenong Rd/Chapel St (St Kilda East),144.992155,1,78,c(323368.489607259, 5808050.41845894)
18615,-37.859529,41-St Michaels Grammar School/Chapel St (St Kilda),144.991873,1,78,c(323347.528945168, 5807871.45755375)
18616,-37.861577,40-Alma Rd/Chapel St (St Kilda East),144.99151,1,78,c(323320.46355308, 5807643.50608299)
18617,-37.863392,39-Argyle St/Chapel St (St Kilda East),144.991188,1,78,c(323296.485750449, 5807441.48909815)
18618,-37.86544,38-Inkerman St/Chapel St (St Kilda East),144.990791,1,78,c(323266.447150219, 5807213.48309167)
18619,-37.86825,37-Chapel St/Carlisle St (Balaclava),144.990135,1,"3/3a,16",c(323215.462620707, 5806900.42650847)
18620,-37.86809,36-St Kilda Town Hall/Carlisle St (St Kilda),144.988685,1,"3/3a,16",c(323087.520029638, 5806915.4245221)
18621,-37.868477,37-Carlisle St/Chapel St (St Kilda),144.990231,1,78,c(323224.460868682, 5806875.41146519)
18622,-37.871091,36-Brighton Rd/Chapel St (St Kilda),144.989774,1,78,c(323190.492465935, 5806584.48269304)
18623,-37.867828,35-St Kilda Rd/Carlisle St (St Kilda),144.986566,1,"3/3a,67,16",c(322900.492230392, 5806940.48624052)
18624,-37.867478,34-Greeves St/Carlisle St (St Kilda),144.984006,1,"3/3a,16",c(322674.458375778, 5806974.45290287)
18625,-37.867067,33-Barkly St/Carlisle St (St Kilda),144.981085,1,"3/3a,16",c(322416.511761962, 5807014.50731881)
18632,-37.868806,38-Balaclava Station/Carlisle St (Balaclava),144.994235,1,"3/3a,16",c(323577.459511272, 5806846.48848605)
18633,-37.86907,39-Orange Gr/Carlisle St (Balaclava),144.996513,1,"3/3a,16",c(323778.483950995, 5806821.50230891)
18634,-37.869433,40-Hotham St/Carlisle St (Balaclava),144.999289,1,"3/3a,16",c(324023.539193045, 5806786.45485721)
18635,-37.869706,41-Empress Rd/Balaclava Rd (St Kilda East),145.001577,1,"3/3a,16",c(324225.436527742, 5806760.47745726)
18636,-37.870166,42-Sidwell Ave/Balaclava Rd (Caulfield North),145.005317,1,"3/3a,16",c(324555.522618017, 5806716.47437655)
18637,-37.870553,43-Orrong Rd/Balaclava Rd (Caulfield North),145.008466,1,"3/3a,16",c(324833.433972372, 5806679.4477991)
18638,-37.871069,44-Ontario St/Balaclava Rd (Caulfield North),145.012363,1,"3/3a,16",c(325177.452157533, 5806629.49282952)
18639,-37.871344,45-Lumeah Rd/Balaclava Rd (Caulfield North),145.014732,1,"3/3a,16",c(325386.502414148, 5806603.41994348)
18640,-37.871726,46-Kooyong Rd/Balaclava Rd (Caulfield North),145.017621,1,"3/3a,16",c(325641.530489452, 5806566.4290623)
18641,-37.872145,47-Elmhurst Rd/Balaclava Rd (Caulfield North),145.021099,1,"3/3a,16",c(325948.449267886, 5806526.43474878)
18645,-37.87257,51-Hawthorn Rd/Balaclava Rd (Caulfield North),145.02443,1,"3/3a,16",c(326242.458741922, 5806485.48635953)
18646,-37.873081,52-Caulfield Park Bowling Club/Balaclava Rd (Caulfield North),145.028544,1,3/3a,c(326605.54030126, 5806436.43567499)
18647,-37.873396,53-Caulfield Park/Balaclava Rd (Caulfield North),145.031252,1,3/3a,c(326844.470573739, 5806406.51137774)
18648,-37.873959,54-Kambrook Rd/Balaclava Rd (Caulfield North),145.035819,1,3/3a,c(327247.500599822, 5806352.50064115)
18649,-37.874198,55-Normanby Rd/Balaclava Rd (Caulfield North),145.0377,1,3/3a,c(327413.511720797, 5806329.46715931)
18650,-37.875416,56-Caulfield Racecourse/Normanby Rd (Caulfield North),145.039396,1,3/3a,c(327565.528999422, 5806197.44052078)
18651,-37.8764,57-Caulfield Railway Station/Derby Rd (Caulfield East),145.041677,1,3/3a,c(327768.450354266, 5806092.4676571)
18652,-37.875709,58-Dandenong Rd/Derby Rd (Caulfield North),145.041866,1,3/3a,c(327783.464917957, 5806169.4962281)
18653,-37.87576,59-Dandenong Rd/Waverley Rd (Malvern East),145.044946,1,3/3a,c(328054.508128668, 5806169.51608876)
18654,-37.875893,60-Burke Rd/Waverley Rd (Malvern East),145.048046,1,3/3a,c(328327.48276472, 5806160.46536092)
18655,-37.876247,61-Tennyson St/Waverley Rd (Malvern East),145.050936,1,3/3a,c(328582.508020956, 5806126.50201995)
18656,-37.876697,62-The Avenue/Waverley Rd (Malvern East),145.054687,1,3/3a,c(328913.462640472, 5806083.45396478)
18657,-37.876917,63-Oak Gr/Waverley Rd (Malvern East),145.056546,1,3/3a,c(329077.486214618, 5806062.454184)
18658,-37.837522,27-Park St/Montague St (South Melbourne),144.954176,1,1,c(319977.487354138, 5810241.46463664)
18659,-37.840679,28-Montague St/Bridport St (Albert Park),144.955384,1,1,c(320091.452316022, 5809893.46904002)
18660,-37.841563,29-Bridport St/Victoria Ave (Albert Park),144.953337,1,1,c(319913.468487584, 5809791.42956923)
18661,-37.843942,30-Richardson St/Victoria Ave (Albert Park),144.951283,1,1,c(319738.52815381, 5809523.47858246)
18662,-37.845674,31-Graham St/Victoria Ave (Albert Park),144.949826,1,1,c(319614.544689522, 5809328.46375486)
18663,-37.847124,32-Beaconsfield Pde/Victoria Ave (Albert Park),144.948729,1,1,c(319521.524767891, 5809165.44157907)
18699,-37.83819,124-Walsh St/Toorak Rd (South Yarra),144.984565,1,58,c(322653.459833983, 5810225.50784562)
18700,-37.838417,125-Punt Rd/Toorak Rd (South Yarra),144.986741,1,58,c(322845.484828046, 5810204.44201803)
18702,-37.838788,126-Myrtle St/Toorak Rd (South Yarra),144.989504,1,58,c(323089.524308906, 5810168.51547577)
18703,-37.839131,127-South Yarra Railway Station/Toorak Rd (South Yarra),144.992165,1,58,c(323324.528797819, 5810135.49488877)
18704,-37.839581,128-Chapel St/Toorak Rd (South Yarra),144.995823,1,58,c(323647.509565985, 5810092.47679389)
18705,-37.839927,129-Tivoli Rd/Toorak Rd (South Yarra),144.998666,1,58,c(323898.513740266, 5810059.45382686)
18706,-37.840368,130-Hawksburn Rd/Toorak Rd (South Yarra),145.002336,1,58,c(324222.542260322, 5810017.43514124)
18707,-37.840725,131-Williams Rd/Toorak Rd (Toorak),145.00536,1,58,c(324489.50211262, 5809983.50684225)
18708,-37.841093,132-Toorak Village/Toorak Rd (Toorak),145.008452,1,58,c(324762.472743663, 5809948.47926748)
18709,-37.841387,133-Canterbury Rd/Toorak Rd (Toorak),145.010888,1,58,c(324977.513755242, 5809920.42164325)
18710,-37.810925,43-Deepdene Shopping Centre/Whitehorse Rd (Balwyn),145.064877,1,109,c(329658.467694296, 5813400.47997858)
18711,-37.779417,119-Park St/Lygon St (Carlton North),144.970471,1,"6,1",c(321271.458210888, 5816720.43642447)
18712,-37.778455,120-Brunswick Rd/Lygon St (Brunswick),144.970634,1,"6,1",c(321283.504075311, 5816827.4981141)
18713,-37.775667,121-Weston St/Lygon St (Brunswick East),144.970971,1,"6,1",c(321306.467667236, 5817137.51611593)
18714,-37.772737,122-Glenlyon Rd/Lygon St (Brunswick East),144.971415,1,"6,1",c(321338.509872119, 5817463.48749203)
18715,-37.769781,123-Albert St/Lygon St (Brunswick East),144.97195,1,"6,1",c(321378.515538334, 5817792.52868307)
18716,-37.7682,124-Victoria St/Lygon St (Brunswick East),144.972231,1,"6,1",c(321399.477058229, 5817968.49513784)
18717,-37.766664,125-Blyth St/Lygon St (Brunswick East),144.972512,1,"6,1",c(321420.516111361, 5818139.47732809)
18718,-37.764427,126-Stewart St/Lygon St (Brunswick East),144.972902,1,"6,1",c(321449.510716424, 5818388.456038)
18719,-37.762369,127-Albion St/Lygon St (Brunswick East),144.973265,1,"6,1",c(321476.528125851, 5818617.50841225)
18720,-37.759387,128-Mitchell St/Holmes St (Brunswick East),144.974334,1,"6,1",c(321563.518874513, 5818950.45281059)
18721,-37.75688,129-Moreland Rd/Holmes St (Brunswick),144.974754,1,"6,1",c(321594.506464397, 5819229.43801745)
18722,-37.756206,130-Barrow St/Moreland Rd (Coburg),144.970153,1,6,c(321187.519561746, 5819295.44243133)
18723,-37.75581,131-De Carle St/Moreland Rd (Coburg),144.96652,1,6,c(320866.513722709, 5819332.43282998)
18724,-37.755564,132-Sydney Rd/Moreland Rd (Coburg),144.964279,1,6,c(320668.483670281, 5819355.43230236)
18725,-37.75526,133-Moreland Station/Moreland Rd (Coburg),144.962381,1,6,c(320500.537913768, 5819385.52714067)
18726,-37.753566,130-The Avenue/Nicholson St (Coburg),144.975945,1,1,c(321691.465808772, 5819599.44464585)
10311,-37.862455,45-Glenferrie Rd/Wattletree Rd (Malvern),145.028508,1,5,c(326577.457239133, 5807615.49610385)
10371,-37.862069,44-Duncraig Ave/Wattletree Rd (Armadale),145.025382,1,5,c(326301.522630978, 5807652.50484624)
1083,-37.769699,42-Clyde St/Raleigh Rd (Maribyrnong),144.898841,1,"82,57",c(314938.485421667, 5817659.43496148)
11285,-37.86171,43-Egerton Rd/Wattletree Rd (Armadale),145.022754,1,5,c(326069.481251831, 5807687.44717334)
1185,-37.864226,50-Vincent St/Wattletree Rd (Malvern East),145.043375,1,5,c(327889.480607726, 5807446.50201272)
12599,-37.861346,42-Kooyong Rd/Wattletree Rd (Armadale),145.019899,1,5,c(325817.472891714, 5807722.51892235)
1291,-37.864613,51-Erica Ave/Wattletree Rd (Malvern East),145.046571,1,5,c(328171.543936261, 5807409.44924213)
1292,-37.731619,38-Renown St/Sydney Rd (Coburg),144.964266,1,19,c(320609.529927677, 5822012.4678804)
13401,-37.850564,28-Punt Rd/High St (Prahran),144.984047,1,6,c(322637.52299805, 5808851.42565126)
13995,-37.768891,44-Barb St/Raleigh Rd (Maribyrnong),144.891985,1,"82,57",c(314332.526695559, 5817735.50487046)
14033,-37.85105,29-Perth St/High St (Prahran),144.987727,1,6,c(322962.477134238, 5808804.48303066)
14614,-37.851319,30-Prahran Station/High St (Prahran),144.989731,1,6,c(323139.458746966, 5808778.43182816)
14728,-37.851756,31-Chapel St/High St (Prahran),144.993209,1,6,c(323446.519215384, 5808736.52043155)
15559,-37.768629,45-Randall St/Raleigh Rd (Maribyrnong),144.888938,1,"82,57",c(314063.46500485, 5817758.52164867)
15699,-37.852199,32-Hornby St/High St (Prahran),144.996436,1,6,c(323731.512293058, 5808693.46460861)
1575,-37.865076,52-Burke Rd/Wattletree Rd (Malvern East),145.050071,1,5,c(328480.509542675, 5807364.50655906)
16610,-37.852434,33-The Avenue/High St (Prahran),144.998089,1,6,c(323877.492160006, 5808670.50902104)
16713,-37.741471,34-Bell St/Sydney Rd (Coburg),144.96647,1,19,c(320827.518747598, 5820923.46184489)
16714,-37.743259,33-Coburg Market/Sydney Rd (Coburg),144.966148,1,19,c(320803.439530428, 5820724.44615129)
16715,-37.745065,32-Munro St/Sydney Rd (Coburg),144.965838,1,19,c(320780.484028957, 5820523.4463821)
16716,-37.74874,31-Reynard St/Sydney Rd (Coburg),144.965204,1,19,c(320733.492339273, 5820114.43863971)
16717,-37.752073,30-The Avenue/Sydney Rd (Coburg),144.964636,1,19,c(320691.485819278, 5819743.49660776)
16718,-37.852651,34-Lewisham Rd/High St (Prahran),144.999685,1,6,c(324018.455311769, 5808649.44168031)
16719,-37.75564,28-Moreland Rd/Sydney Rd (Brunswick),144.964016,1,19,c(320645.482197448, 5819346.49877163)
16720,-37.757815,27-Brunswick Tram Depot/Sydney Rd (Brunswick),144.963639,1,19,c(320617.529689112, 5819104.42333551)
16721,-37.760959,26-Albion St/Sydney Rd (Brunswick),144.963087,1,19,c(320576.507814076, 5818754.49332537)
16722,-37.763232,25-Stewart St/Sydney Rd (Brunswick),144.962695,1,19,c(320547.465755038, 5818501.51255926)
16723,-37.765578,24-Brunswick Baptist Church/Sydney Rd (Brunswick),144.962302,1,19,c(320518.507266267, 5818240.44007927)
16724,-37.767141,23-Victoria St/Sydney Rd (Brunswick),144.962032,1,19,c(320498.503099754, 5818066.47959957)
16725,-37.768947,22-Albert St/Sydney Rd (Brunswick),144.961721,1,19,c(320475.472834385, 5817865.47559942)
16726,-37.771643,21-Brunswick Town Hall/Sydney Rd (Brunswick),144.961261,1,19,c(320441.46898106, 5817565.43474434)
16727,-37.774842,20-Barkly Square/115 Sydney Rd (Brunswick),144.960742,1,19,c(320403.517352716, 5817209.45397289)
16728,-37.777591,19-Brunswick Rd/Sydney Rd (Brunswick),144.960269,1,19,c(320368.507412457, 5816903.50510222)
16729,-37.779379,18-Princes Park/Royal Pde (Parkville),144.959936,1,19,c(320343.507782442, 5816704.45525364)
16730,-37.781888,17-Ievers St/Royal Pde (Parkville),144.95964,1,19,c(320323.521639453, 5816425.47134907)
16731,-37.784856,16-Visy Park/Royal Pde (Parkville),144.959274,1,19,c(320298.467023481, 5816095.42897141)
16732,-37.787931,15-Leonard St/Royal Pde (Parkville),144.958894,1,19,c(320272.438555394, 5815753.47498587)
16733,-37.790017,14-Macarthur Rd/Royal Pde (Parkville),144.958644,1,19,c(320255.492330987, 5815521.51763548)
16734,-37.792679,13-Gatehouse St/Royal Pde (Parkville),144.95831,1,19,c(320232.52582027, 5815225.48175387)
16735,-37.795656,12-Morrah St/Royal Pde (Parkville),144.957944,1,19,c(320207.535792761, 5814894.44038685)
17328,-37.779383,18-Princes Park/Royal Pde (Parkville),144.960152,1,19,c(320362.541247977, 5816704.43095114)
16736,-37.798273,11-University of Melbourne/Royal Pde (Parkville),144.957656,1,19,c(320188.522786443, 5814603.48611581)
16738,-37.853011,35-Williams Rd/High St (Prahran),145.002324,1,6,c(324251.487614148, 5808614.46654227)
16739,-37.853556,36-Chatsworth Rd/High St (Prahran),145.006276,1,6,c(324600.505201186, 5808561.42079543)
16740,-37.853866,37-Airlie Ave/High St (Prahran),145.008654,1,6,c(324810.480982067, 5808531.49280247)
16741,-37.85422,38-Orrong Rd/High St (Prahran),145.011452,1,6,c(325057.491308193, 5808497.46284885)
16742,-37.854685,39-Auburn Gr/High St (Armadale),145.014974,1,6,c(325368.45800709, 5808452.45665165)
16743,-37.855119,40-Armadale Station/High St (Armadale),145.018247,1,6,c(325657.460878279, 5808410.41958946)
16744,-37.855419,41-Kooyong Rd/High St (Armadale),145.020581,1,6,c(325863.508529925, 5808381.48079053)
16745,-37.855832,42-Huntingtower Rd/High St (Armadale),145.023673,1,6,c(326136.524372107, 5808341.41609031)
16746,-37.856122,43-Mercer Rd/High St (Armadale),145.025938,1,6,c(326336.494701066, 5808313.45598767)
16747,-37.856536,44-Glenferrie Rd/High St (Malvern),145.029166,1,6,c(326621.448356335, 5808273.51808151)
16748,-37.856942,45-De La Salle College/High St (Malvern),145.032383,1,6,c(326905.461506707, 5808234.43985004)
16749,-37.857383,46-Fraser St/High St (Malvern),145.035611,1,6,c(327190.471769881, 5808191.48631353)
16750,-37.857694,47-Dixon St/High St (Malvern),145.038013,1,6,c(327402.5181945, 5808161.42689571)
16751,-37.858078,48-Tooronga Rd/High St (Glen Iris),145.041049,1,6,c(327670.539898774, 5808124.42431898)
16752,-37.858454,49-Harold Holt Swim Centre/High St (Glen Iris),145.044198,1,6,c(327948.453222293, 5808088.50968937)
16753,-37.858945,50-Belmont Ave/High St (Glen Iris),145.048255,1,6,c(328306.507282807, 5808041.50342093)
16754,-37.85931,51-Burke Rd/High St (Glen Iris),145.051212,1,6,c(328567.507190444, 5808006.43336704)
16755,-37.859614,52-Boyanda Rd/High St (Glen Iris),145.053795,1,6,c(328795.456282523, 5807977.43999579)
16757,-37.859998,53-Malvern Rd/High St (Glen Iris),145.056331,1,6,c(329019.471075534, 5807939.48620046)
16758,-37.859782,52-Boyanda Rd/High St (Glen Iris),145.054189,1,6,c(328830.525361615, 5807959.52766501)
16759,-37.859486,51-Burke Rd/High St (Glen Iris),145.051503,1,6,c(328593.537587073, 5807987.43404455)
16760,-37.85911,50-Belmont Ave/High St (Glen Iris),145.048409,1,6,c(328320.445951591, 5808023.47095911)
16761,-37.85867,49-Harold Holt Swim Centre/High St (Glen Iris),145.044704,1,6,c(327993.486643636, 5808065.47427746)
16762,-37.858272,48-Tooronga Rd/High St (Glen Iris),145.041362,1,6,c(327698.515192679, 5808103.47025897)
16764,-37.85782,47-Dixon St/High St (Malvern),145.038009,1,6,c(327402.4637597, 5808147.43790706)
16765,-37.857558,46-Fraser St/High St (Malvern),145.0358,1,6,c(327207.508635505, 5808172.4217565)
16766,-37.857157,45-De La Salle College/High St (Malvern),145.032889,1,6,c(326950.464994883, 5808211.51921937)
16767,-37.856704,44-Glenferrie Rd/High St (Malvern),145.029503,1,6,c(326651.519613058, 5808255.50917016)
16768,-37.856289,43-Mercer Rd/High St (Armadale),145.026229,1,6,c(326362.478583171, 5808295.47154039)
16769,-37.855996,42-Huntingtower Rd/High St (Armadale),145.023827,1,6,c(326150.465912701, 5808323.50697799)
16770,-37.855585,41-Kooyong Rd/High St (Armadale),145.020804,1,6,c(325883.536749515, 5808363.48137267)
16771,-37.855274,40-Armadale Station/High St (Armadale),145.018402,1,6,c(325671.445969696, 5808393.50130031)
16772,-37.854872,39-Auburn Gr/High St (Armadale),145.015356,1,6,c(325402.505454578, 5808432.41849551)
16773,-37.854386,38-Orrong Rd/High St (Armadale),145.011709,1,6,c(325080.499253096, 5808479.5187661)
16774,-37.853993,37-Airlie Ave/High St (Prahran),145.008685,1,6,c(324813.505620886, 5808517.45934621)
16775,-37.853764,36-Chatsworth Rd/High St (Prahran),145.006873,1,6,c(324653.51442625, 5808539.46262297)
16776,-37.853169,35-Williams Rd/High St (Prahran),145.002615,1,6,c(324277.487786245, 5808597.47788219)
16777,-37.852829,34-Lewisham Rd/High St (Prahran),145.000113,1,6,c(324056.540061391, 5808630.49455019)
16778,-37.852623,33-The Avenue/High St (Prahran),144.998607,1,6,c(323923.522226845, 5808650.51392885)
1696,-37.864782,51-Nott St/Wattletree Rd (Malvern East),145.046998,1,5,c(328209.496657191, 5807391.48007207)
17306,-37.72758,40-North Coburg Terminus/Sydney Rd (Coburg North),144.96365,1,19,c(320545.493767785, 5822459.47576172)
17307,-37.729891,39-Mercy College/Sydney Rd (Coburg North),144.963859,1,19,c(320569.475180811, 5822203.43439239)
17308,-37.732112,38-Carr St/Sydney Rd (Coburg North),144.964627,1,19,c(320642.510113732, 5821958.4514748)
17309,-37.733856,37-Gaffney St/Sydney Rd (Coburg North),144.965407,1,19,c(320715.469196886, 5821766.42163605)
17310,-37.735534,36-Rogers St/Sydney Rd (Coburg),144.966076,1,19,c(320778.462816524, 5821581.50850306)
17311,-37.737505,35-St Pauls Catholic Church/Sydney Rd (Coburg),144.96693,1,19,c(320858.49855871, 5821364.43280755)
17312,-37.741159,34-Bell St/Sydney Rd (Coburg),144.96666,1,19,c(320843.515936377, 5820958.45023019)
17313,-37.743136,33-Coburg Market/Sydney Rd (Coburg),144.966356,1,19,c(320821.478331601, 5820738.48673182)
17314,-37.744888,32-Harding St/Sydney Rd (Coburg),144.966058,1,19,c(320799.438643705, 5820543.51188494)
17315,-37.748474,31-Edward St/Sydney Rd (Coburg),144.96545,1,19,c(320754.546774093, 5820144.42166743)
17316,-37.751861,30-The Avenue/Sydney Rd (Coburg),144.964846,1,19,c(320709.497372402, 5819767.42865466)
17317,-37.753505,29-Moore St/Sydney Rd (Coburg),144.964551,1,19,c(320687.457930664, 5819584.43282523)
17318,-37.755311,28-Moreland Rd/Sydney Rd (Coburg),144.964252,1,19,c(320665.493889396, 5819383.45360049)
17319,-37.757422,27-Brunswick Tram Depot/Sydney Rd (Brunswick),144.963876,1,19,c(320637.449204505, 5819148.49030262)
17320,-37.760738,26-Albion St/Sydney Rd (Brunswick),144.963309,1,19,c(320595.509946111, 5818779.43655173)
17321,-37.763083,25-Stewart St/Sydney Rd (Brunswick),144.962904,1,19,c(320565.499286302, 5818518.45150624)
17322,-37.765356,24-Blyth St/Sydney Rd (Brunswick),144.962512,1,19,c(320536.458995277, 5818265.4705665)
17323,-37.766982,23-Victoria St/Sydney Rd (Brunswick),144.962229,1,19,c(320515.464850391, 5818084.50444534)
17324,-37.768761,22-Albert St/Sydney Rd (Brunswick),144.961919,1,19,c(320492.463909105, 5817886.49865553)
17325,-37.771367,21-Glenlyon Rd/Sydney Rd (Brunswick),144.961473,1,19,c(320459.478508225, 5817596.4617854)
17327,-37.777647,19-Brunswick Rd/Sydney Rd (Brunswick),144.960392,1,19,c(320379.48680459, 5816897.52982923)
17329,-37.781684,17-Ievers St/Royal Pde (Parkville),144.959838,1,19,c(320340.465494316, 5816448.4922734)
17330,-37.784589,16-Walker St/Royal Pde (Parkville),144.959509,1,19,c(320318.523194694, 5816125.50212502)
17331,-37.787674,15-Leonard St/Royal Pde (Parkville),144.959129,1,19,c(320292.517697128, 5815782.44967853)
17332,-37.789715,14-Cemetery Road West/Royal Pde (Parkville),144.958879,1,19,c(320275.461741457, 5815555.48586352)
17333,-37.792422,13-Gatehouse St/Royal Pde (Parkville),144.958544,1,19,c(320252.508299024, 5815254.45454213)
17334,-37.795561,12-Morrah St/Royal Pde (Parkville),144.958173,1,19,c(320227.466478707, 5814905.41712292)
17335,-37.798105,11-University of Melbourne/Royal Pde (Parkville),144.957854,1,19,c(320205.549438469, 5814622.51274721)
17591,-37.812769,7-Russell St/Bourke St (Melbourne City),144.968354,1,"96,86",c(321165.452767415, 5813015.45414039)
17593,-37.813484,6-Swanston St/Bourke St (Melbourne City),144.965904,1,"96,86",c(320951.515282495, 5812931.42468094)
17594,-37.814217,5-Elizabeth St/Bourke St (Melbourne City),144.96351,1,"96,86",c(320742.537289468, 5812845.4891595)
17596,-37.815253,4-Queen St/Bourke St (Melbourne City),144.959835,1,"96,86",c(320421.507376417, 5812723.46939525)
17597,-37.815882,3-William St/Bourke St (Melbourne City),144.957625,1,"96,86",c(320228.480598526, 5812649.41899955)
17602,-37.852354,32-Hornby St/High St (Prahran),144.996534,1,6,c(323740.497039909, 5808676.45200966)
17603,-37.851951,31-Chapel St/High St (Prahran),144.993533,1,6,c(323475.492034212, 5808715.50156734)
17604,-37.851392,30-Prahran Station/High St (Windsor),144.989298,1,6,c(323101.527467281, 5808769.51158892)
17605,-37.851207,29-Perth St/High St (Windsor),144.987927,1,6,c(322980.464493312, 5808787.4354438)
17606,-37.850758,28-Punt Rd/High St (Windsor),144.984371,1,6,c(322666.496324797, 5808830.50941803)
1784,-37.734097,37-Gaffney St/Sydney Rd (Coburg),144.965321,1,19,c(320708.467926024, 5821739.52202906)
17848,-37.817063,1-Spencer St/Bourke St (Melbourne City),144.953514,1,"96,86",c(319869.471747194, 5812510.4495454)
17849,-37.816846,1-Spencer St/Bourke St (Melbourne City),144.953997,1,"96,86",c(319911.473035987, 5812535.45980344)
17850,-37.817717,1-Flinders Street Railway Station/Elizabeth St (Melbourne City),144.964765,1,"57,59,19",c(320861.47666148, 5812459.51428907)
17851,-37.815428,2-Collins St/Elizabeth St (Melbourne City),144.963669,1,"57,59,19",c(320759.442746363, 5812711.41938181)
17852,-37.813447,3-Bourke Street Mall/Elizabeth St (Melbourne City),144.962758,1,"57,59,19",c(320674.469644792, 5812929.49395069)
17854,-37.810558,5-Melbourne Central Station/Elizabeth St (Melbourne City),144.961429,1,"57,59,19",c(320550.466493103, 5813247.52252087)
17856,-37.806561,7-Queen Victoria Market/Elizabeth St (Melbourne City),144.959574,1,"57,59,19",c(320377.464036204, 5813687.4875487)
17857,-37.805935,8-Peel St/Victoria St (Melbourne City),144.956218,1,57,c(320080.484295837, 5813750.49877666)
17858,-37.805688,9-William St/Victoria St (Melbourne City),144.953908,1,57,c(319876.496067167, 5813773.45132068)
17859,-37.805517,10-Chetwynd St/Victoria St (Melbourne City),144.952391,1,57,c(319742.54787623, 5813789.50112622)
17860,-37.805196,11-Errol St/Victoria St (Melbourne City),144.949446,1,57,c(319482.466086044, 5813819.43773167)
17861,-37.804959,11-Victoria St/Errol St (North Melbourne),144.949339,1,57,c(319472.475420525, 5813845.52679232)
17862,-37.805403,10-Chetwynd St/Victoria St (Melbourne City),144.95203,1,57,c(319710.48005913, 5813801.45782148)
17863,-37.805564,9-Howard St/Victoria St (Melbourne City),144.953502,1,57,c(319840.474023098, 5813786.43099399)
17864,-37.80581,8-Peel St/Victoria St (Melbourne City),144.955744,1,57,c(320038.438427943, 5813763.44743541)
17866,-37.801947,9-Pelham St/Elizabeth St (Melbourne City),144.957464,1,"59,19",c(320180.507296556, 5814195.4292691)
17867,-37.799901,10-Royal Melbourne Hospital/Royal Pde (Melbourne City),144.957441,1,19,c(320173.515876414, 5814422.41807622)
17868,-37.79958,10-Royal Melbourne Hospital/Royal Pde (Parkville),144.957665,1,19,c(320192.484963084, 5814458.47312975)
17869,-37.802148,9-Pelham St/Elizabeth St (Melbourne City),144.957663,1,"59,19",c(320198.523319325, 5814173.50158661)
17871,-37.80689,7-Queen Victoria Market/Elizabeth St (Melbourne City),144.959849,1,"57,59,19",c(320402.476280609, 5813651.50407634)
17873,-37.811105,5-Melbourne Central Station/Elizabeth St (Melbourne City),144.961778,1,"57,59,19",c(320582.533374707, 5813187.49262792)
17875,-37.814039,3-Bourke Street Mall/Elizabeth St (Melbourne City),144.963128,1,"57,59,19",c(320708.481612422, 5812864.51022732)
17876,-37.815929,2-Collins St/Elizabeth St (Melbourne City),144.963996,1,"57,59,19",c(320789.461813976, 5812656.44995088)
17877,-37.817899,1-Flinders Street Railway Station/Elizabeth St (Melbourne City),144.96484,1,"57,59,19",c(320868.508190459, 5812439.46428547)
17878,-37.805758,11-Melbourne Museum/Nicholson St (Fitzroy),144.973601,1,"96,86",c(321610.490664096, 5813803.46864168)
17880,-37.809676,10-Albert St/Nicholson St (Fitzroy),144.972949,1,"86,96,35",c(321562.523788125, 5813367.46262597)
17882,-37.811544,9-Spring St/Bourke St (Melbourne City),144.972579,1,"96,86",c(321534.441611173, 5813159.46687831)
17885,-37.815706,3-William St/Bourke St (Melbourne City),144.957914,1,"96,86",c(320253.5014493, 5812669.50987523)
17886,-37.815122,4-Queen St/Bourke St (Melbourne City),144.960054,1,"96,86",c(320440.489829508, 5812738.43191429)
17887,-37.814031,5-Elizabeth St/Bourke St (Melbourne City),144.963685,1,"96,86",c(320757.489424134, 5812866.46795765)
17888,-37.813266,6-Swanston St/Bourke St (Melbourne City),144.966376,1,"96,86",c(320992.536683236, 5812956.51765965)
17889,-37.812468,7-Russell St/Bourke St (Melbourne City),144.969169,1,"96,86",c(321236.477524654, 5813050.42059764)
1789,-37.864385,50-Anderson St/Wattletree Rd (Malvern East),145.043712,1,5,c(327919.493514194, 5807429.47667682)
17891,-37.811523,9-Spring St/Bourke St (Melbourne City),144.97241,1,"96,86",c(321519.52702484, 5813161.48122776)
17892,-37.809423,10-Albert St/Nicholson St (East Melbourne),144.972899,1,"86,96,35",c(321557.509240872, 5813395.4402997)
17894,-37.805676,11-Melbourne Museum/Nicholson St (Fitzroy),144.973546,1,"96,86",c(321605.443964755, 5813812.46155251)
17895,-37.80828,12-St Vincents Plaza/Victoria Pde (East Melbourne),144.976133,1,"11,12,30,109",c(321839.496814857, 5813528.44741285)
17896,-37.80939,11-Albert St/Gisborne St (East Melbourne),144.975728,1,"11,12,109",c(321806.509730781, 5813404.50620319)
17897,-37.812379,10-Parliament Railway Station/Macarthur St (East Melbourne),144.974488,1,"11,12,109",c(321704.516680884, 5813070.46381993)
17898,-37.813557,8-Spring St/Collins St (Melbourne City),144.973285,1,"11,12,48,109",c(321601.437109987, 5812937.44766243)
17901,-37.815674,6-Melbourne Town Hall/Collins St (Melbourne City),144.965957,1,"11,12,48,109",c(320961.466043788, 5812688.50369594)
17902,-37.816423,5-Elizabeth St/Collins St (Melbourne City),144.963404,1,"11,12,48,109",c(320738.525306097, 5812600.49508999)
17903,-37.817607,3-William St/Collins St (Melbourne City),144.959429,1,"11,12,48,109",c(320391.497429182, 5812461.48024956)
17905,-37.818847,1-Spencer St/Collins St (Melbourne City),144.955055,1,"11,12,48,109",c(320009.47293104, 5812315.45908466)
17906,-37.818741,1-Spencer St/Collins St (Melbourne City),144.955183,1,"11,12,48,109",c(320020.465244611, 5812327.47003233)
17908,-37.817372,3-William St/Collins St (Melbourne City),144.959913,1,"11,12,48,109",c(320433.519652039, 5812488.4865736)
17910,-37.816206,5-Elizabeth St/Collins St (Melbourne City),144.963864,1,"11,12,48,109",c(320778.50126308, 5812625.45658687)
17911,-37.815518,6-Melbourne Town Hall/Collins St (Melbourne City),144.96628,1,"11,12,48,109",c(320989.515773452, 5812706.44002107)
17914,-37.813416,8-Spring St/Collins St (Melbourne City),144.973482,1,"11,12,48,109",c(321618.464922554, 5812953.46397618)
17915,-37.81217,10-Parliament Railway Station/Macarthur St (East Melbourne),144.974368,1,"11,12,109",c(321693.460301523, 5813093.42464404)
17917,-37.768887,46-Rosamond Rd/Raleigh Rd (Maribyrnong),144.886729,1,"82,57",c(313869.530504709, 5817725.49353624)
17918,-37.769637,48-Raleigh Rd/Wests Rd (Maribyrnong),144.882813,1,82,c(313526.45846588, 5817634.46824383)
17919,-37.773104,49-Highpoint Shopping Centre/Wests Rd (Maribyrnong),144.882181,1,82,c(313479.519497097, 5817248.47802024)
17920,-37.775212,50-Wests Rd/Williamson Rd (Maribyrnong),144.882143,1,82,c(313481.456769939, 5817014.48585837)
17921,-37.77604,51-Williamson Rd/Rosamond Rd (Maidstone),144.885571,1,82,c(313785.465413569, 5816929.43937121)
17922,-37.779332,52-Rosamond Rd/River St (Maribyrnong),144.88575,1,82,c(313809.517753529, 5816564.49121775)
17923,-37.779594,53-Maribyrnong College/River St (Maribyrnong),144.887786,1,82,c(313989.477804517, 5816539.47222976)
17924,-37.780002,54-Gordon St/River St (Maribyrnong),144.890931,1,82,c(314267.4903357, 5816500.45493863)
17925,-37.782241,55-Lyric St/Gordon St (Maribyrnong),144.891151,1,82,c(314292.4683614, 5816252.4349434)
17926,-37.784898,56-Edgewater Square/Gordon St (Maribyrnong),144.890599,1,82,c(314250.517437116, 5815956.5013945)
17927,-37.788644,57-Titch St/Gordon St (Footscray),144.889924,1,82,c(314200.455280095, 5815539.47958292)
17928,-37.790476,58-Ballarat Rd/Gordon St (Footscray),144.889554,1,82,c(314172.454943729, 5815335.44770825)
17929,-37.792584,59-Droop St/Ballarat Rd (Footscray),144.893571,1,82,c(314531.490475164, 5815109.51225443)
17930,-37.79489,60-Tiernan St/Droop St (Footscray),144.895516,1,82,c(314708.50218267, 5814857.48259433)
17931,-37.796793,61-Geelong Rd/Droop St (Footscray),144.897131,1,82,c(314855.49261687, 5814649.50871907)
17932,-37.799841,62-Nicholson St/Hopkins St (Footscray),144.899736,1,82,c(315092.470540323, 5814316.44638712)
17933,-37.800081,63-Footscray Market/Leeds St (Footscray),144.901058,1,82,c(315209.463951794, 5814292.42631467)
17934,-37.801367,64-Footscray Station/Leeds St (Footscray),144.90092,1,82,c(315200.529604295, 5814149.44895739)
17935,-37.770432,40-Epsom Rd/Maribyrnong Rd (Moonee Ponds),144.905121,1,"82,57",c(315493.475095283, 5817590.50275876)
17936,-37.770862,39-Bowen St/Maribyrnong Rd (Moonee Ponds),144.909003,1,"82,57",c(315836.477484414, 5817550.44873057)
17937,-37.771236,38-Hotham St/Maribyrnong Rd (Moonee Ponds),144.91233,1,"82,57",c(316130.471829452, 5817515.4915574)
17938,-37.771644,37-Union Rd/Maribyrnong Rd (Moonee Ponds),144.915997,1,"82,57",c(316454.481330432, 5817477.42615597)
17939,-37.771891,36-86 Maribyrnong Rd (Moonee Ponds),144.918295,1,82,c(316657.496940657, 5817454.52079604)
17940,-37.772212,35-Moore St/Maribyrnong Rd (Moonee Ponds),144.921135,1,82,c(316908.44855186, 5817424.47310478)
17941,-37.772474,34-Ascot Vale Rd/Maribyrnong Rd (Moonee Ponds),144.923705,1,82,c(317135.470775294, 5817400.42121005)
17942,-37.770051,33-Chaucer St/Ascot Vale Rd (Moonee Ponds),144.924284,1,82,c(317180.522496785, 5817670.43266767)
17944,-37.768856,49-Central Park Ave/Cordite Ave (Maribyrnong),144.877977,1,57,c(313098.516835679, 5817711.46923006)
17945,-37.773571,36-St Leonards Rd/Union Rd (Ascot Vale),144.915943,1,57,c(316454.490915141, 5817263.48926241)
17946,-37.775889,35-Bloomfield Rd/Union Rd (Ascot Vale),144.91556,1,57,c(316426.486887751, 5817005.51282006)
17947,-37.778533,34-Burrowes St/Union Rd (Ascot Vale),144.915225,1,57,c(316403.540659173, 5816711.45804676)
17948,-37.780355,33-Melbourne Showgrounds/Union Rd (Ascot Vale),144.914787,1,57,c(316369.462545271, 5816508.42109353)
17949,-37.782587,32-Sandown Rd/Epsom Rd (Ascot Vale),144.916712,1,57,c(316544.516129559, 5816264.52402388)
17950,-37.784018,31-Racing Victoria/161 Epsom Rd (Ascot Vale),144.918125,1,57,c(316672.496463685, 5816108.50363038)
17951,-37.786043,30-Flemington Racecourse/Epsom Rd (Ascot Vale),144.919987,1,57,c(316841.474325191, 5815887.44721023)
17952,-37.787349,29-Flemington Racecourse/Racecourse Rd (Flemington),144.922006,1,57,c(317022.524062778, 5815746.48135969)
17953,-37.787626,28-Smithfield Rd/Racecourse Rd (Flemington),144.92495,1,57,c(317282.476922269, 5815721.50132225)
17954,-37.787971,26-Newmarket Plaza/Racecourse Rd (Flemington),144.928154,1,57,c(317565.484491205, 5815689.48037628)
17955,-37.788241,25-Wellington St/Racecourse Rd (Flemington),144.931235,1,57,c(317837.462706442, 5815665.52895624)
17956,-37.788443,24-Victoria St/Racecourse Rd (Flemington),144.93349,1,57,c(318036.545762521, 5815647.50117809)
17957,-37.788768,23-Stubbs St/Racecourse Rd (Flemington),144.936581,1,57,c(318309.542386423, 5815617.45196966)
17958,-37.789131,22-Boundary Rd/Racecourse Rd (North Melbourne),144.939852,1,57,c(318598.480396482, 5815583.52879631)
17959,-37.790394,20-Melrose St/Flemington Rd (North Melbourne),144.943485,1,"59,57",c(318921.505559862, 5815450.41791338)
17961,-37.794106,19-Abbotsford St Interchange/Abbotsford St (North Melbourne),144.947096,1,57,c(319248.523168609, 5815045.50674448)
18006,-37.809695,11-Albert St/Gisborne St (East Melbourne),144.975606,1,"11,12,109",c(321796.499008888, 5813370.42770796)
18009,-37.808019,10-Nicholson St/Victoria Pde (East Melbourne),144.973562,1,30,c(321612.509459377, 5813552.50287098)
18010,-37.807614,9-La Trobe St/Victoria St (Melbourne City),144.970972,1,"35,30",c(321383.493545438, 5813592.49472407)
19718,-37.818618,18-Church St/Bridge Rd (Richmond),144.999423,1,"75,48",c(323914.478730373, 5812425.44450668)
18011,-37.808103,8-Exhibition St/La Trobe St (Melbourne City),144.969027,1,"35,30",c(321213.460005344, 5813534.51560954)
18030,-37.80955,6-Swanston St/La Trobe St (Melbourne City),144.964081,1,"35,30",c(320781.512751132, 5813364.4679739)
18031,-37.810291,5-Elizabeth St/La Trobe St (Melbourne City),144.961596,1,"35,30",c(320564.525579196, 5813277.47468792)
18032,-37.811005,4-Queen St/La Trobe St (Melbourne City),144.959122,1,"35,30",c(320348.459863773, 5813193.48306703)
18033,-37.811711,3-William St/La Trobe St (Melbourne City),144.956718,1,"35,30",c(320138.526923081, 5813110.51891314)
18035,-37.813112,1-Spencer St/La Trobe St (Melbourne City),144.95176,1,"35,30",c(319705.462215812, 5812945.49340553)
18037,-37.813781,D10-New Quay Prom/Docklands Dr (Docklands),144.940508,1,"70,86,35",c(318716.529378752, 5812849.48099707)
18038,-37.814345,D11-Waterfront City/Docklands Dr (Docklands),144.938754,1,"70,86,35",c(318563.507711933, 5812783.48695824)
18039,-37.813312,D10-NewQuay Prom/Docklands Dr (Docklands),144.941509,1,"70,86,35",c(318803.517636386, 5812903.46581903)
18040,-37.814578,D1-Stadium Precinct/La Trobe St (Docklands),144.946404,1,"35,86,30",c(319237.52253573, 5812772.4634274)
18041,-37.813211,119-Spencer St/La Trobe St (Melbourne City),144.951201,1,"35,86,30",c(319656.485106637, 5812933.42841933)
18042,-37.81248,2-King St/La Trobe St (Melbourne City),144.953732,1,"35,30",c(319877.536116291, 5813019.42667651)
18043,-37.811791,3-William St/La Trobe St (Melbourne City),144.956136,1,"35,30",c(320087.473930087, 5813100.51943745)
18044,-37.811061,4-Queen St/La Trobe St (Melbourne City),144.958712,1,"35,30",c(320312.497194068, 5813186.48247909)
18045,-37.810355,5-Elizabeth St/La Trobe St (Melbourne City),144.961117,1,"35,30",c(320522.496919491, 5813269.44343536)
18046,-37.809647,6-Swanston St/La Trobe St (Melbourne City),144.963465,1,"35,30",c(320727.519618784, 5813352.52009979)
18047,-37.808909,7-Russell St/La Trobe St (Melbourne City),144.966098,1,"35,30",c(320957.543411075, 5813439.46293681)
18048,-37.808185,8-Exhibition St/La Trobe St (Melbourne City),144.968537,1,"35,30",c(321170.52205554, 5813524.47968797)
18049,-37.807656,9-Victoria St/La Trobe St (Melbourne City),144.970266,1,"35,30",c(321321.44216725, 5813586.48079154)
18050,-37.807836,10-Nicholson St/Victoria Pde (Carlton),144.97284,1,"35,30",c(321548.49032834, 5813571.42703341)
18051,-37.808231,12-St Vincents Plaza/Victoria Pde (Fitzroy),144.976452,1,"11,12,30,109",c(321867.460094326, 5813534.48855506)
18052,-37.814705,D2-Central Pier/Harbour Esp (Docklands),144.944901,1,"35,70,75,86,30",c(319105.520610012, 5812755.46194949)
18053,-37.817819,D3-Stadium Precinct/Harbour Esp (Docklands),144.946246,1,"70,75,35",c(319231.517153567, 5812412.51636405)
18054,-37.821466,D4-Docklands Park/Harbour Esp (Docklands),144.94761,1,"70,75,35",c(319360.483543756, 5812010.46303033)
18055,-37.821835,D5-South Wharf/Wurundjeri Way (Docklands),144.951213,1,"70,75,35",c(319678.521139733, 5811976.47935302)
18056,-37.821471,D6-Flinders Street West/Flinders St (Docklands),144.953608,1,"70,75,35",c(319888.459753651, 5812021.48870244)
18057,-37.79496,18-Chapman St/Abbotsford St (North Melbourne),144.946947,1,57,c(319237.481023805, 5814950.45228727)
18058,-37.796307,17-Molesworth St/Abbotsford St (North Melbourne),144.946694,1,57,c(319218.511745306, 5814800.48868563)
18059,-37.798284,16-Haines St/Abbotsford St (North Melbourne),144.946344,1,57,c(319192.489078143, 5814580.43750316)
18060,-37.800997,15-Arden St/Abbotsford St (North Melbourne),144.945849,1,57,c(319155.521349261, 5814278.42266721)
18061,-37.80239,14-Queensberry St/Abbotsford St (North Melbourne),144.945628,1,57,c(319139.457550414, 5814123.41661266)
18063,-37.79138,23-Royal Park/Royal Park (Parkville),144.949397,1,58,c(319444.514694305, 5815352.44985423)
18064,-37.788016,24-Elliott Ave/Royal Park (Parkville),144.949751,1,58,c(319467.489009331, 5815726.42525882)
18065,-37.784539,25-State Netball Hockey Centre/Royal Park (Parkville),144.948848,1,58,c(319379.511753489, 5816110.50597095)
18066,-37.782617,26-Melbourne Zoo/Royal Park (Parkville),144.949219,1,58,c(319407.488130222, 5816324.49338979)
18067,-37.780753,27-Royal Park Station/Royal Park (Parkville),144.95136,1,58,c(319591.537091094, 5816535.47762922)
18068,-37.777241,28-Park St/Royal Park (Parkville),144.949969,1,58,c(319460.47923996, 5816922.50161577)
18069,-37.775538,29-Brunswick Rd/Grantham St (Brunswick West),144.948915,1,58,c(319363.493533613, 5817109.43784353)
18071,-37.772367,30-Union Square Shopping Centre/Grantham St (Brunswick West),144.949525,1,58,c(319409.490199983, 5817462.4850673)
18072,-37.770051,31-Grantham St/Dawson St (Brunswick West),144.949532,1,58,c(319404.48818478, 5817719.5021707)
18073,-37.769789,32-Foden St/Dawson St (Brunswick),144.947382,1,58,c(319214.473907814, 5817744.419115)
18074,-37.769399,33-South Daly St/Dawson St (Brunswick West),144.944169,1,58,c(318930.503704483, 5817781.47483752)
18075,-37.767311,34-Smith St/Melville Rd (Brunswick),144.943319,1,58,c(318850.537540422, 5818011.52492676)
18076,-37.764708,35-Victoria St/Melville Rd (Brunswick West),144.94389,1,58,c(318894.480960602, 5818301.47247952)
18077,-37.76204,36-Hope St/Melville Rd (Brunswick West),144.944384,1,58,c(318931.482704392, 5818598.49092568)
18078,-37.758563,37-Albion St/Melville Rd (Brunswick West),144.944991,1,58,c(318976.473995365, 5818985.49007029)
18079,-37.756623,38-Jacobs Reserve/Melville Rd (Brunswick West),144.945385,1,58,c(319006.441160254, 5819201.52994484)
18080,-37.7548,39-Mattingley Cres/Melville Rd (Brunswick West),144.945708,1,58,c(319030.479252173, 5819404.44010087)
18081,-37.753163,40-Moreland Rd/Melville Rd (Brunswick West),144.945901,1,58,c(319043.490929585, 5819586.46498601)
18082,-37.749317,41-Woodlands Ave/Melville Rd (Pascoe Vale South),144.946552,1,58,c(319091.469317689, 5820014.49361221)
18083,-37.746399,42-Reynard St/Melville Rd (Pascoe Vale South),144.944556,1,58,c(318908.502868685, 5820334.43633256)
18084,-37.743928,43-Princes Tce/Melville Rd (Pascoe Vale South),144.944999,1,58,c(318941.497252843, 5820609.48318894)
18085,-37.741592,44-Brearley Pde/Melville Rd (Pascoe Vale South),144.945404,1,58,c(318971.49239412, 5820869.48626201)
18086,-37.740117,45-Bell St/Melville Rd (Pascoe Vale South),144.945592,1,58,c(318984.458249516, 5821033.52469884)
18087,-37.819063,3-Market St/Flinders St (Melbourne City),144.961797,1,"70,75,35",c(320603.449868201, 5812304.46190665)
18089,-37.818238,4-Elizabeth St/Flinders St (Melbourne City),144.964626,1,"70,75,35",c(320850.503790054, 5812401.44323776)
18090,-37.81756,5-Swanston St/Flinders St (Melbourne City),144.967132,1,"70,75,35",c(321069.459562572, 5812481.47890874)
18091,-37.816564,6-Russell St/Flinders St (Melbourne City),144.9705,1,"70,75,35",c(321363.519052629, 5812598.45116968)
18092,-37.815319,8-Spring St/Flinders St (Melbourne City),144.974612,1,"75,35",c(321722.524159004, 5812744.45772149)
18093,-37.815453,9-Lansdowne St/Wellington Pde (East Melbourne),144.977164,1,"75,48",c(321947.472095089, 5812734.45453941)
18094,-37.81575,10-Jolimont Rd/Wellington Pde (East Melbourne),144.979791,1,"75,48",c(322179.46540363, 5812706.50283165)
18095,-37.816341,11-Jolimont Station-MCG/Wellington Pde (East Melbourne),144.984819,1,"75,48",c(322623.475144043, 5812650.47879055)
18097,-37.81654,13-Simpson St/Wellington Pde (East Melbourne),144.986983,1,"75,48",c(322814.443281629, 5812632.50507347)
18098,-37.817388,14-Punt Rd/Wellington Pde (Melbourne City),144.989675,1,"75,48",c(323053.450182816, 5812543.51198621)
18099,-37.817533,14-Punt Rd/Bridge Rd (Richmond),144.990217,1,"75,48",c(323101.521728938, 5812528.45007059)
18100,-37.816603,13-Simpson St/Wellington Pde (East Melbourne),144.98697,1,"75,48",c(322813.453088599, 5812625.48964528)
18102,-37.816246,11-Jolimont Station-MCG/Wellington Pde (East Melbourne),144.983992,1,"75,48",c(322550.454172074, 5812659.45425799)
18103,-37.815769,10-Jolimont Rd/Wellington Pde (East Melbourne),144.979325,1,"75,48",c(322138.471387259, 5812703.50791802)
18104,-37.815471,9-Lansdowne St/Wellington Pde (Melbourne City),144.976664,1,"75,48",c(321903.528320439, 5812731.5044896)
18105,-37.815537,8-Spring St/Flinders St (Melbourne City),144.974174,1,"75,35",c(321684.480773882, 5812719.43302193)
18108,-37.819587,7B-Rod Laver Arena/MCG Gates 1-3 (Melbourne City),144.97913,1,70,c(322130.493213621, 5812279.47137)
18116,-37.822384,7C-MCG Gates 4-7/John Cain Arena (Melbourne City),144.98353,1,70,c(322524.500225554, 5811977.46818886)
18118,-37.824135,7D-Olympic Boulevard (Melbourne City),144.986857,1,70,c(322821.517775252, 5811789.47956569)
18155,-37.823827,7D-Olympic Boulevard (Melbourne City),144.986751,1,70,c(322811.464759975, 5811823.46400566)
18161,-37.822137,7C-MCG Gates 4-7/John Cain Arena (Melbourne City),144.982798,1,70,c(322459.454851936, 5812003.48051217)
18172,-37.819349,7B-Rod Laver Arena/MCG Gates 1-3 (Melbourne City),144.978421,1,70,c(322067.493959037, 5812304.52589871)
18174,-37.816657,6-Russell St/Flinders St (Melbourne City),144.970168,1,"70,75,35",c(321334.524797968, 5812587.48977931)
18175,-37.817756,5-Swanston St/Flinders St (Melbourne City),144.966491,1,"70,75,35",c(321013.493002925, 5812458.49878627)
18176,-37.818412,4-Elizabeth St/Flinders St (Melbourne City),144.96428,1,"70,75,35",c(320820.470658035, 5812381.46478092)
18178,-37.819306,3-Market St/Flinders St (Melbourne City),144.961279,1,"70,75,35",c(320558.437023441, 5812276.5018795)
18179,-37.821726,D6-Victoria Police Centre/Flinders St (Southbank),144.953215,1,"70,75,35",c(319854.475792719, 5811992.43732451)
18180,-37.822001,D5-South Wharf/Wurundjeri Way (Docklands),144.950913,1,"70,75,35",c(319652.528883379, 5811957.47428222)
18181,-37.821725,D4-Docklands Park/Harbour Esp (Docklands),144.947501,1,"70,75,35",c(319351.513552492, 5811981.5094809)
18182,-37.817463,D3-Stadium Precinct/Harbour Esp (Docklands),144.94596,1,"70,75,35",c(319205.486412025, 5812451.47158504)
18183,-37.814249,D2-CentralPier/Harbour Esp (Docklands),144.944584,1,"35,70,75,86,30",c(319076.48704159, 5812805.45168102)
18184,-37.825688,125-Clarendon St/Whiteman St (Southbank),144.956684,1,"12,96,109",c(320169.476827283, 5811559.47737295)
18185,-37.823289,124A-Casino/MCEC/Clarendon St (Southbank),144.956057,1,"12,96,109",c(320108.452431974, 5811824.4723936)
18186,-37.821554,124-Batman Park/Spencer St (Melbourne City),144.955265,1,"12,96,109",c(320034.524133971, 5812015.47535438)
18187,-37.818767,122-Southern Cross Railway Station/Spencer St (Melbourne City),144.954092,1,96,c(319924.508331049, 5812322.48112558)
18189,-37.815313,120-Lonsdale St/Spencer St (Melbourne City),144.952381,1,86,c(319765.484606481, 5812702.46057876)
18190,-37.813405,119-La Trobe St/Spencer St (Melbourne City),144.951502,1,86,c(319683.451698177, 5812912.48754874)
18192,-37.81496,120-Lonsdale St/Spencer St (Melbourne City),144.952311,1,86,c(319758.446175367, 5812741.49400953)
18194,-37.818319,122-Southern Cross Railway Station/Spencer St (Melbourne City),144.953718,1,96,c(319890.493474366, 5812371.47500682)
18196,-37.821773,124-Batman Park/Spencer St (Melbourne City),144.955406,1,"12,96,109",c(320047.477980562, 5811991.44898436)
18197,-37.823591,124A-Casino/MCEC/Clarendon St (Southbank),144.95631,1,"12,96,109",c(320131.462178568, 5811791.45358206)
18199,-37.815874,5-Bourke St/William St (Melbourne City),144.95825,1,58,c(320283.508489049, 5812651.51125625)
20549,-37.84184,64-Power St/Glenferrie Rd (Kooyong),145.031967,1,16,c(326833.514365148, 5809909.4695012)
20550,-37.840041,65-Warra St/Glenferrie Rd (Toorak),145.03214,1,16,c(326844.54452872, 5810109.41861595)
20551,-37.839333,65-Kooyong Railway Station/Glenferrie Rd (Kooyong),145.032431,1,16,c(326868.48645247, 5810188.52494754)
20552,-37.838494,66-Kooyong Tennis Centre/Glenferrie Rd (Toorak),145.032351,1,16,c(326859.491423329, 5810281.47446621)
20553,-37.838336,66-Vision Australia/Glenferrie Rd (Kooyong),145.032617,1,16,c(326882.534290833, 5810299.49481879)
20554,-37.835557,67-Gardiner Rd/Glenferrie Rd (Hawthorn),145.03294,1,16,c(326904.455664341, 5810608.46848452)
20555,-37.835451,67-Gardiner Rd/Glenferrie Rd (Hawthorn),145.033091,1,16,c(326917.482684453, 5810620.51267555)
20556,-37.833427,68-Callantina Rd/Glenferrie Rd (Hawthorn),145.033304,1,16,c(326931.508251139, 5810845.50260918)
18201,-37.811996,7-Flagstaff Railway Station/William St (Melbourne City),144.956517,1,58,c(320121.534209646, 5813078.50338583)
18202,-37.809743,8-Franklin St/William St (Melbourne City),144.955454,1,58,c(320022.474397985, 5813326.45918544)
18203,-37.805391,10-Victoria St/Peel St (West Melbourne),144.956029,1,58,c(320062.52382482, 5813810.49589134)
18204,-37.805698,10-Victoria St/Peel St (West Melbourne),144.956077,1,58,c(320067.48453222, 5813776.52262228)
18205,-37.807442,9-Queen Victoria Market/Peel St (North Melbourne),144.955779,1,58,c(320045.506817471, 5813582.42197767)
18206,-37.807216,9-Queen Victoria Market/39 Peel St (North Melbourne),144.955751,1,58,c(320042.48594446, 5813607.44512654)
18207,-37.809428,8-Franklin St/Peel St (Melbourne City),144.955474,1,58,c(320023.452596597, 5813361.45168706)
18208,-37.812461,7-Flagstaff Railway Station/William St (Melbourne City),144.956799,1,58,c(320147.478207986, 5813027.44355928)
18210,-37.81544,5-Bourke St/William St (Melbourne City),144.95816,1,58,c(320274.533091966, 5812699.49521094)
18211,-37.817457,4-Collins St/William St (Melbourne City),144.959092,1,58,c(320361.440102883, 5812477.46977771)
18214,-37.819513,1-Flinders St/Queens Bridge St (Melbourne City),144.96124,1,58,c(320555.515920762, 5812253.45715804)
18215,-37.822117,115-Casino/Southbank/Queens Bridge St (Southbank),144.961225,1,58,c(320560.492194097, 5811964.47521399)
18217,-37.82961,117-York St/Kings Way (South Melbourne),144.964075,1,58,c(320829.494426067, 5811138.47269493)
18218,-37.830536,118-Sturt St/Kings Way (Southbank),144.965004,1,58,c(320913.512961425, 5811037.49929423)
18219,-37.8328,119-Wells St/Park St (South Melbourne),144.969816,1,58,c(321342.471883738, 5810795.49546675)
18221,-37.83289,119-Wells St/Park St (South Melbourne),144.969802,1,58,c(321341.453372956, 5810785.48163129)
18222,-37.831074,118-Sturt St/Kings Way (Southbank),144.965375,1,58,c(320947.449058098, 5810978.5083219)
18223,-37.829571,117-York St/Kings Way (South Melbourne),144.963906,1,58,c(320814.539838974, 5811142.47305282)
18224,-37.830091,20-Kings Way/Sturt St (Southbank),144.965334,1,1,c(320941.459952749, 5811087.51732174)
18225,-37.828431,19-Miles St/Sturt St (Southbank),144.965755,1,1,c(320974.518699634, 5811272.5247012)
18226,-37.825779,18-Grant St/Sturt St (Southbank),144.966634,1,1,c(321045.455587644, 5811568.49516311)
18227,-37.823816,17-Arts Precinct/Sturt St (Southbank),144.967256,1,1,c(321095.469071811, 5811787.5128047)
18229,-37.824094,17-Arts Precinct/Sturt St (Southbank),144.96718,1,1,c(321089.454480143, 5811756.51755195)
18230,-37.825924,18-Grant St/Sturt St (Southbank),144.966664,1,1,c(321048.467555524, 5811552.46411444)
18231,-37.828184,19-Miles St/Sturt St (Southbank),144.966057,1,1,c(321000.506000264, 5811300.50800992)
18232,-37.830119,20-Kings Way/Sturt St (Southbank),144.96539,1,1,c(320946.47068089, 5811084.50908544)
18233,-37.82626,116-City Rd/Kings Way (Southbank),144.960577,1,58,c(320513.492341237, 5811503.48962246)
18341,-37.817906,24-Grattan St/Church St (Hawthorn),145.018607,1,48,c(325601.503874415, 5812540.44595285)
18342,-37.815921,25-Brook St/Church St (Hawthorn),145.020602,1,48,c(325772.460368513, 5812764.43965531)
18343,-37.813253,26-Barkers Rd/Church St (Hawthorn),145.023252,1,48,c(325999.470010847, 5813065.42974663)
18347,-37.805617,34-Pakington St/High St (Kew),145.033837,1,48,c(326913.438912645, 5813932.42734492)
18348,-37.804987,35-Cobden St/High St (Kew),145.035546,1,48,c(327062.456665996, 5814005.50054813)
18349,-37.803489,36-Parkhill Rd/High St (Kew),145.039755,1,48,c(327429.517806303, 5814179.50358548)
18350,-37.802473,37-Kew Cemetery/High St (Kew),145.042564,1,48,c(327674.478597053, 5814297.42961893)
18351,-37.801259,38-Victoria Park/High St (Kew),145.045981,1,48,c(327972.522292206, 5814438.43874434)
18352,-37.799413,39-Harp Rd/High St (Kew),145.050436,1,48,c(328360.495818026, 5814651.47102314)
18353,-37.798628,40-Harp Village/High St (Kew East),145.052024,1,48,c(328498.497861373, 5814741.49163867)
18354,-37.797439,41-Clyde St/High St (Kew East),145.054758,1,48,c(328736.464739601, 5814878.45132045)
18355,-37.796397,42-Irymple Ave/High St (Kew East),145.057159,1,48,c(328945.489685491, 5814998.46660648)
18356,-37.79465,43-Kew High School/High St (Kew East),145.061089,1,48,c(329287.492655904, 5815199.50625605)
18357,-37.79353,44-Burke Rd/High St (Kew),145.063662,1,48,c(329511.506251431, 5815328.48937505)
18358,-37.793168,45-Burke Rd/Doncaster Rd (Balwyn North),145.065216,1,48,c(329647.492127186, 5815371.48962507)
18359,-37.792835,46-Wattle Ave/Doncaster Rd (Balwyn North),145.06745,1,48,c(329843.459438036, 5815412.51090713)
18360,-37.792712,47-North Balwyn Shopping Centre/Doncaster Rd (Balwyn North),145.07144,1,48,c(330194.512239562, 5815433.41993693)
18361,-37.793217,48-Sunburst Ave/Doncaster Rd (Balwyn North),145.074266,1,48,c(330444.514447086, 5815382.51533707)
18362,-37.793756,49-Cityview Rd/Doncaster Rd (Balwyn North),145.077466,1,48,c(330727.526982805, 5815328.50583473)
18363,-37.794259,50-Hill Rd/Doncaster Rd (Balwyn North),145.081189,1,48,c(331056.512801304, 5815279.42719368)
18364,-37.87012,36-St Kilda Primary School/Brighton Rd (Elwood),144.988345,1,67,c(323062.482210903, 5806689.52328699)
18365,-37.872881,38-Wimbledon Ave/Brighton Rd (Elwood),144.990078,1,67,c(323221.53084442, 5806386.42779095)
18367,-37.87596,39-Glen Eira Rd/Brighton Rd (Elwood),144.992018,1,67,c(323399.535228174, 5806048.43734784)
18368,-37.878947,40-Scott St/Brighton Rd (Elwood),144.993892,1,67,c(323571.479369937, 5805720.52486644)
18369,-37.880842,41-Coleridge St/Brighton Rd (Elwood),144.99508,1,67,c(323680.489048828, 5805512.49512006)
18370,-37.882864,42-Hotham St/Brighton Rd (St Kilda East),144.996344,1,67,c(323796.476990382, 5805290.50591731)
18371,-37.883904,43-Brighton Rd/Glenhuntly Rd (Elsternwick),144.997578,1,67,c(323907.491923158, 5805177.42701022)
18372,-37.884306,44-Elsternwick Railway Station/Glenhuntly Rd (Elsternwick),145.000557,1,67,c(324170.447439296, 5805138.44585604)
18373,-37.884751,45-Elsternwick Shopping Centre/Glenhuntly Rd (Elsternwick),145.003945,1,67,c(324469.469531676, 5805095.44241976)
18374,-37.885051,46-Orrong Rd/Glenhuntly Rd (Elsternwick),145.006211,1,67,c(324669.48818582, 5805066.41882164)
18375,-37.885388,47-Shoobra Rd/Glenhuntly Rd (Elsternwick),145.009113,1,67,c(324925.506166524, 5805034.4694886)
18376,-37.885756,48-Parkside St/Glenhuntly Rd (Elsternwick),145.012241,1,67,c(325201.478350149, 5804999.51053304)
18392,-37.886102,49-Kooyong Rd/Glenhuntly Rd (Elsternwick),145.015086,1,67,c(325452.479366166, 5804966.43896768)
18393,-37.886498,50-Royal Pde/Glenhuntly Rd (Caulfield),145.018259,1,67,c(325732.470102562, 5804928.43062047)
18394,-37.886978,51-Hawthorn Rd/Glenhuntly Rd (Caulfield),145.022181,1,67,c(326078.540409183, 5804882.49245234)
18395,-37.887218,52-Jasmine St/Glenhuntly Rd (Caulfield),145.024141,1,67,c(326251.463113214, 5804859.5106034)
18396,-37.887611,53-Glenhuntly Tram Depot/Glenhuntly Rd (Caulfield),145.02711,1,67,c(326513.485792394, 5804821.42505291)
18397,-37.887839,54-Bambra Rd/Glenhuntly Rd (Caulfield),145.0289,1,67,c(326671.464476144, 5804799.45719646)
18398,-37.888108,55-Fallon St/Glenhuntly Rd (Caulfield),145.030986,1,67,c(326855.530765821, 5804773.48109565)
18399,-37.888419,56-Kean St/Glenhuntly Rd (Caulfield),145.033433,1,67,c(327071.448149031, 5804743.51664827)
18400,-37.88867,57-Laura St/Glenhuntly Rd (Caulfield),145.035485,1,67,c(327252.493316924, 5804719.46636487)
18401,-37.888961,58-Booran Rd/Glenhuntly Rd (Caulfield),145.037808,1,67,c(327457.47000983, 5804691.46955091)
18403,-37.889308,60-Glenhuntly Shops/Glenhuntly Rd (Glen Huntly),145.040767,1,67,c(327718.48538431, 5804658.44056036)
18404,-37.889548,61-Glenhuntly Railway Station/Glenhuntly Rd (Glen Huntly),145.04275,1,67,c(327893.454425189, 5804635.46765643)
18405,-37.889838,62-Grange Rd/Glenhuntly Rd (Glen Huntly),145.04504,1,67,c(328095.511867913, 5804607.51378966)
18406,-37.890143,63-Maroona Rd/Glenhuntly Rd (Carnegie),145.047658,1,67,c(328326.443768812, 5804578.49101275)
18407,-37.890406,64-Mernda Ave/Glenhuntly Rd (Carnegie),145.049903,1,67,c(328524.477902775, 5804553.4399)
18408,-37.890714,65-Mimosa Rd/Glenhuntly Rd (Carnegie),145.052192,1,67,c(328726.508865746, 5804523.47191337)
18409,-37.891069,66-Glenhuntly Rd/Truganini Rd (Carnegie),145.054048,1,67,c(328890.530449423, 5804487.48054545)
18410,-37.892697,67-Centre Rd/Truganini Rd (Carnegie),145.054369,1,67,c(328922.53899872, 5804307.41614974)
18411,-37.893865,68-Carnegie/Truganini Rd (Carnegie),145.055805,1,67,c(329051.523382528, 5804180.4495307)
18412,-37.914222,68-East Brighton/Hawthorn Rd (Brighton East),145.01689,1,64,c(325677.501017968, 5801849.4360294)
18413,-37.911094,67-Howell St/Hawthorn Rd (Brighton East),145.017395,1,64,c(325714.520866155, 5802197.47945661)
18414,-37.90873,66-Union St/Hawthorn Rd (Brighton East),145.017765,1,64,c(325741.478426198, 5802460.50030367)
18415,-37.906574,65-Davey Ave/Hawthorn Rd (Brighton East),145.018141,1,64,c(325769.435705332, 5802700.44170821)
18416,-37.904094,64-Taylor St/Hawthorn Rd (Brighton East),145.018595,1,64,c(325803.53118532, 5802976.49272627)
18417,-37.90157,63-North Rd/Hawthorn Rd (Brighton East),145.019072,1,64,c(325839.520429297, 5803257.45941433)
18418,-37.899496,62-Gardenvale Rd/Hawthorn Rd (Caulfield South),145.019525,1,64,c(325874.452449106, 5803488.45571119)
18419,-37.896702,61-Raynes St/Hawthorn Rd (Caulfield South),145.020067,1,64,c(325915.509644752, 5803799.50367766)
18420,-37.895058,60-Dover St/Hawthorn Rd (Caulfield South),145.020372,1,64,c(325938.480978683, 5803982.50595122)
18421,-37.893135,59-Princes Park/Hawthorn Rd (Caulfield South),145.020685,1,64,c(325961.461339677, 5804196.48183348)
18422,-37.889938,58-Sycamore St/Hawthorn Rd (Caulfield South),145.021328,1,64,c(326010.474760293, 5804552.43924564)
18423,-37.887081,57-Glenhuntly Rd/Hawthorn Rd (Caulfield South),145.021848,1,64,c(326049.497228623, 5804870.43625468)
18424,-37.884584,56-Lockhart St/Hawthorn Rd (Caulfield),145.022347,1,64,c(326087.502498557, 5805148.45533343)
18425,-37.88258,55-Sylverly Gr/Hawthorn Rd (Caulfield),145.022719,1,64,c(326115.494267453, 5805371.51853247)
18426,-37.880128,54-Glen Eira Rd/Hawthorn Rd (Caulfield),145.023205,1,64,c(326152.471322088, 5805644.51930335)
18427,-37.877488,53-Crotonhurst Ave/Hawthorn Rd (Caulfield North),145.023719,1,64,c(326191.479521479, 5805938.42479802)
18428,-37.875251,52-Halstead St/Hawthorn Rd (Caulfield North),145.024154,1,64,c(326224.47194832, 5806187.4707609)
18429,-37.872888,51-Balaclava Rd/Hawthorn Rd (Caulfield North),145.024604,1,64,c(326258.500971189, 5806450.51635838)
18430,-37.869699,50-Inkerman Rd/Hawthorn Rd (Caulfield North),145.025189,1,"64,16",c(326302.467525083, 5806805.48314681)
18431,-37.867992,49-Wanda Rd/Hawthorn Rd (Caulfield North),145.025519,1,"64,16",c(326327.498011086, 5806995.51004857)
18432,-37.865899,48A-Dandenong Rd/Hawthorn Rd (Caulfield North),145.025904,1,"64,16",c(326356.437180009, 5807228.48257825)
18437,-37.864618,44-Bailey Ave/Dandenong Rd (Armadale),145.023677,1,64,c(326157.520499408, 5807366.47955745)
18438,-37.863822,43-Matlock Ct/Dandenong Rd (Armadale),145.021913,1,64,c(326000.465929968, 5807451.5257743)
18439,-37.862509,42-Kooyong Rd/Dandenong Rd (Armadale),145.018834,1,64,c(325726.497862609, 5807591.47859357)
18440,-37.861966,41-Cantala Ave/Dandenong Rd (Armadale),145.017643,1,64,c(325620.451220663, 5807649.50483277)
18441,-37.860808,40-Wattletree Rd/Dandenong Rd (Armadale),145.014696,1,"64,5",c(325358.459068823, 5807772.49517695)
18443,-37.860301,38-Orrong Rd/Dandenong Rd (Armadale),145.010834,1,"64,5",c(325017.488737063, 5807821.51610625)
18444,-37.859827,37-Lansdowne Rd/Dandenong Rd (Prahran),145.007278,1,"64,5",c(324703.512757467, 5807867.44274706)
18445,-37.859425,36-Alexandra St/Dandenong Rd (Prahran),145.004299,1,"64,5",c(324440.474116875, 5807906.44385523)
18446,-37.859073,35-Williams Rd/Dandenong Rd (Prahran),145.001649,1,"64,5",c(324206.499669485, 5807940.51380166)
18447,-37.858508,34-Westbury St/Dandenong Rd (St Kilda East),144.997538,1,"64,5",c(323843.48919663, 5807995.45943867)
18448,-37.858279,33-Hornby St/Dandenong Rd (Windsor),144.995748,1,"64,5",c(323685.467777035, 5808017.49573682)
18449,-37.857426,32-Chapel St/Dandenong Rd (Windsor),144.991691,1,"64,5",c(323326.481565962, 5808104.46832008)
18450,-37.821711,115-Casino East/Queens Bridge St (Southbank),144.961225,1,58,c(320559.508797183, 5812009.52642572)
18451,-37.877269,64-Darling Rd/Waverley Rd (Malvern East),145.058765,1,3/3a,c(329273.477919573, 5806027.45934422)
18452,-37.877103,63-Hughes St/Waverley Rd (Malvern East),145.056905,1,3/3a,c(329109.485527786, 5806042.4688902)
18453,-37.876873,62-Macgregor St/Waverley Rd (Malvern East),145.055001,1,3/3a,c(328941.481059165, 5806064.50531289)
18454,-37.876376,61-Tennyson St/Waverley Rd (Malvern East),145.05108,1,3/3a,c(328595.472829868, 5806112.45540212)
18455,-37.876051,60-Burke Rd/Waverley Rd (Malvern East),145.048326,1,3/3a,c(328352.484605486, 5806143.45376883)
18456,-37.875844,59-Dandenong Rd/Waverley Rd (Caulfield East),145.045069,1,3/3a,c(328065.501080109, 5806160.42458204)
18457,-37.876404,57-Caulfield Railway Station/Derby Rd (Caulfield East),145.041939,1,3/3a,c(327791.511388301, 5806092.51212963)
18459,-37.875357,56-Caulfield Racecourse/Normanby Rd (Caulfield East),145.039102,1,3/3a,c(327539.520942539, 5806203.44819894)
18460,-37.874494,55-Balaclava Rd/Normanby Rd (Caulfield East),145.038135,1,3/3a,c(327452.454577001, 5806297.42465465)
18461,-37.874145,54-Kambrook Rd/Balaclava Rd (Caulfield East),145.036132,1,3/3a,c(327275.452481634, 5806332.446951)
18462,-37.873644,53-Caulfield Park/Balaclava Rd (Caulfield North),145.032041,1,3/3a,c(326914.463049885, 5806380.45187675)
18463,-37.873137,52-Caulfield Park Bowling Club/Balaclava Rd (Caulfield North),145.028144,1,3/3a,c(326570.490534272, 5806429.48028054)
18464,-37.872795,51-Hawthorn Rd/Balaclava Rd (Caulfield North),145.024947,1,3/3a,c(326288.460272567, 5806461.48180227)
18465,-37.819429,1-Flinders St/Queens Bridge St (Melbourne City),144.961106,1,58,c(320543.524051713, 5812262.51767017)
18466,-37.818539,2-Flinders Lane/Market St (Melbourne City),144.960698,1,58,c(320505.463646651, 5812360.4949192)
18467,-37.81864,3-William St/Flinders Lane (Melbourne City),144.959776,1,58,c(320424.518946105, 5812347.5165181)
18468,-37.872299,47-Caulfield Junior College/Balaclava Rd (Caulfield North),145.021175,1,"3/3a,16",c(325955.493375512, 5806509.48879957)
18469,-37.817819,4-Collins St/William St (Melbourne City),144.959173,1,58,c(320369.448030364, 5812437.45800059)
18479,-37.814106,50-Wharton St/Whitehorse Rd (Surrey Hills),145.091376,"1,2",109,c(331998.501149667, 5813095.49738295)
18481,-37.83223,22-Dorcas St/Eastern Rd (South Melbourne),144.964957,1,1,c(320913.4591876, 5810849.43400197)
18482,-37.834472,23-Moray St/Park St (South Melbourne),144.96385,1,1,c(320821.45654774, 5810598.52442156)
18483,-37.835203,24-Clarendon St/Park St (South Melbourne),144.961308,1,1,c(320599.514163688, 5810512.52853172)
18484,-37.835946,25-Cecil St/Park St (South Melbourne),144.958912,1,1,c(320390.436789173, 5810425.46872835)
18485,-37.770297,41-Maribyrnong Park/Maribyrnong Rd (Ascot Vale),144.902571,1,"82,57",c(315268.532158319, 5817600.44799683)
18486,-37.769829,42-Clyde St/Raleigh Rd (Maribyrnong),144.899087,1,"82,57",c(314960.468339682, 5817645.49043213)
18487,-37.769506,43-Van Ness Ave/Raleigh Rd (Maribyrnong),144.896122,1,"82,57",c(314698.490009198, 5817675.46142643)
18488,-37.769057,44-Warrs Rd/Raleigh Rd (Maribyrnong),144.892184,1,"82,57",c(314350.478485254, 5817717.47418556)
18489,-37.768739,45-Maribyrnong Community Centre/Raleigh Rd (Maribyrnong),144.889548,1,"82,57",c(314117.491622219, 5817747.5209039)
18490,-37.769003,46-Rosamond Rd/Raleigh Rd (Maribyrnong),144.887157,1,"82,57",c(313907.526209889, 5817713.4723565)
18491,-37.769403,48-Wests Rd/Raleigh Rd (Maribyrnong),144.883319,1,"82,57",c(313570.456420113, 5817661.4439163)
18492,-37.773286,49-Highpoint Shopping Centre/Wests Rd (Maribyrnong),144.882266,1,82,c(313487.460347466, 5817228.45377412)
18493,-37.77493,50-Williamson Rd/Wests Rd (Maribyrnong),144.881992,1,82,c(313467.461769983, 5817045.48421224)
18494,-37.776293,51-Williamson Rd/Rosamond Rd (Maidstone),144.885643,1,82,c(313792.441997531, 5816901.50928474)
18495,-37.778502,52-River St/Rosamond Rd (Maribyrnong),144.885206,1,82,c(313759.524746201, 5816655.51786791)
18496,-37.779545,53-Maribyrnong College/River St (Maribyrnong),144.888094,1,82,c(314016.495942228, 5816545.5283561)
18497,-37.779917,54-Gordon St/River St (Maribyrnong),144.89124,1,82,c(314294.513622025, 5816510.49711096)
18498,-37.782118,55-Lyric St/Gordon St (Maribyrnong),144.891348,1,82,c(314309.535060886, 5816266.47915186)
18499,-37.784444,56-Edgewater Square/Gordon St (Maribyrnong),144.890873,1,82,c(314273.507815711, 5816007.4203882)
18500,-37.7888,57-Titch St/Gordon St (Footscray),144.890068,1,82,c(314213.527386024, 5815522.44835584)
18501,-37.790551,58-Ballarat Rd/Gordon St (Footscray),144.889723,1,82,c(314187.542835395, 5815327.46495641)
18505,-37.792313,59-Droop St/Ballarat Rd (Footscray),144.893511,1,82,c(314525.518617116, 5815139.4638791)
18506,-37.794619,60-Tiernan St/Droop St (Footscray),144.895489,1,82,c(314705.447507323, 5814887.5000059)
18507,-37.796138,61-Geelong Rd/Droop St (Footscray),144.896764,1,82,c(314821.523425147, 5814721.4666801)
18508,-37.799276,62-Nicholson St/Droop St (Footscray),144.899412,1,82,c(315062.533127986, 5814378.49372793)
18509,-37.799853,63-Leeds St/Hopkins St (Footscray),144.900917,1,82,c(315196.470094539, 5814317.4443424)
18511,-37.770053,33-Chaucer St/Ascot Vale Rd (Moonee Ponds),144.924443,1,82,c(317194.512023453, 5817670.51339887)
18727,-37.75134,131-Rennie St/Nicholson St (Coburg),144.976505,1,1,c(321735.475139535, 5819847.52691845)
18728,-37.749418,132-Crozier St/Nicholson St (Coburg),144.976841,1,1,c(321760.45627806, 5820061.43591355)
18729,-37.746371,133-Harding St/Nicholson St (Coburg),144.97731,1,1,c(321794.476511637, 5820400.44385953)
19691,-37.807799,7-RMIT University/Swanston St (Melbourne City),144.962868,1,"16,3/3a,5,6,64,67,72,1",c(320670.468181748, 5813556.43567981)
19693,-37.805135,4-Queensberry St/Swanston St (Carlton),144.963112,1,"16,3/3a,5,6,64,67,72,1",c(320685.511693267, 5813852.51768168)
19694,-37.802629,3-Lincoln Square/Swanston St (Carlton),144.963555,1,"16,3/3a,5,6,64,67,72,1",c(320718.467349314, 5814131.45446122)
19696,-37.798766,1-Melbourne University/Swanston St (Carlton),144.964241,1,"16,3/3a,5,6,64,67,72,1",c(320769.50970126, 5814561.42929682)
19697,-37.865113,34-Inkerman St/St Kilda Rd (St Kilda),144.985901,1,"67,3/3a",c(322835.496936191, 5807240.49151591)
19698,-37.864069,34-Inkerman St/St Kilda Rd (St Kilda),144.985452,1,"67,3/3a",c(322793.503553798, 5807355.48808196)
19699,-37.797587,15-Murphy St/Flemington Rd (North Melbourne),144.952394,1,"59,58",c(319723.519248442, 5814669.46688339)
19700,-37.862483,33-Argyle St/St Kilda Rd (St Kilda),144.984893,1,"67,3/3a",c(322740.519111418, 5807530.41683735)
19701,-37.862086,33-Argyle St/St Kilda Rd (St Kilda),144.984892,1,"67,3/3a",c(322739.47252653, 5807574.47739217)
19702,-37.859945,32-Alma Rd/St Kilda Rd (St Kilda),144.984053,1,"67,3/3a",c(322660.546708553, 5807810.45400305)
19703,-37.86098,32-Alma Rd/St Kilda Rd (St Kilda),144.984513,1,"67,3/3a",c(322703.472316831, 5807696.47727375)
19704,-37.857968,31-Barkly St/St Kilda Rd (St Kilda),144.983356,1,"67,3/3a",c(322594.457556958, 5808028.51266461)
19705,-37.858261,31-Barkly St/St Kilda Rd (St Kilda),144.983587,1,"67,3/3a",c(322615.49382089, 5807996.44440197)
19706,-37.817909,15-Epworth Hospital/Bridge Rd (Richmond),144.993808,1,"75,48",c(323418.526393479, 5812493.52013076)
19708,-37.818361,17-Bosisto St/Bridge Rd (Richmond),144.996499,1,"75,48",c(323656.48417681, 5812448.45028459)
19709,-37.818472,18-Church St/Bridge Rd (Richmond),144.998791,1,"75,48",c(323858.484560735, 5812440.46117824)
19710,-37.81875,19-Richmond Town Hall/Bridge Rd (Richmond),145.001374,1,"75,48",c(324086.517757368, 5812414.48005239)
19711,-37.818977,20-Coppin St/Bridge Rd (Richmond),145.003571,1,"75,48",c(324280.457322015, 5812393.41919621)
19712,-37.819535,21-Burnley St/Bridge Rd (Richmond),145.008873,1,"75,48",c(324748.498455353, 5812341.46310238)
19713,-37.820099,22-Yarra Bvd/Bridge Rd (Richmond),145.01397,1,"75,48",c(325198.482772223, 5812288.43700824)
19714,-37.820152,22-Yarra Bvd/Bridge Rd (Richmond),145.013401,1,"75,48",c(325148.539589886, 5812281.49000793)
19715,-37.81948,21-Burnley St/Bridge Rd (Richmond),145.007772,1,"75,48",c(324651.462733194, 5812345.50869681)
19716,-37.819083,20-Coppin St/Bridge Rd (Richmond),145.003977,1,"75,48",c(324316.4541523, 5812382.42858363)
19717,-37.818813,19-Richmond Town Hall/Bridge Rd (Richmond),145.001372,1,"75,48",c(324086.508900087, 5812407.48583328)
19719,-37.818219,17-Waltham St/Bridge Rd (Richmond),144.996639,1,"75,48",c(323668.473446382, 5812464.47402847)
19721,-37.827691,125A-Southbank Tram Depot/Light Rail (South Melbourne),144.953709,1,"12,109",c(319912.487361638, 5811331.473443)
19722,-37.830191,126-Montague St/Light Rail (South Melbourne),144.948766,1,109,c(319483.50136794, 5811044.50944986)
19723,-37.833431,127-North Port Station/Light Rail (Port Melbourne),144.943336,1,109,c(319013.517571889, 5810674.46525273)
19724,-37.837032,128-Graham St/Light Rail (Port Melbourne),144.937463,1,109,c(318505.459115229, 5810263.47295231)
19725,-37.840789,129-Beacon Cove/Light Rail (Port Melbourne),144.932813,1,109,c(318105.453227096, 5809837.52330954)
19726,-37.808551,13-Lansdowne St/Victoria Pde (East Melbourne),144.978806,1,"12,109",c(322075.475828371, 5813503.47124279)
19728,-37.808925,15-Smith St/Victoria Pde (East Melbourne),144.982215,1,"12,109",c(322376.482360288, 5813468.4527506)
19729,-37.809292,16-Wellington St/Victoria Pde (East Melbourne),144.985738,1,"12,109",c(322687.515703134, 5813434.42892559)
19731,-37.809795,18-Hoddle St/Victoria Pde (Collingwood),144.990415,1,"12,109",c(323100.479821549, 5813387.47949912)
19732,-37.809786,19-North Richmond Railway Station/Victoria St (Richmond),144.992551,1,"12,109",c(323288.49524223, 5813392.52076768)
19733,-37.810173,20-Lennox St/Victoria St (Richmond),144.996198,1,"12,109",c(323610.50177639, 5813356.47020315)
19734,-37.818023,15-Epworth Hospital/Bridge Rd (Richmond),144.993577,1,"75,48",c(323398.453294701, 5812480.42972717)
19735,-37.810976,22-McKay St/Victoria St (Richmond),145.00423,1,"12,109",c(324319.511384672, 5813282.49361713)
19736,-37.811313,23-Leslie St/Victoria St (Richmond),145.007617,1,"12,109",c(324618.474587, 5813251.46718849)
19737,-37.811509,24-Burnley St/Victoria St (Richmond),145.010122,1,"12,109",c(324839.455246565, 5813234.41585446)
19738,-37.811826,25-River Bvd/Victoria St (Richmond),145.012908,1,109,c(325085.47183999, 5813204.46253314)
19740,-37.812878,27-Findon St/Barkers Rd (Hawthorn),145.020775,1,109,c(325780.517832514, 5813102.42781616)
19742,-37.812964,29-Barkers Rd/High St (Kew),145.023771,1,"48,109",c(326044.459219729, 5813098.47372497)
19744,-37.810081,31-Stevenson St/High St (Kew),145.026506,1,"48,109",c(326278.496725794, 5813423.47289971)
19745,-37.807431,32-Kew Junction/High St (Kew),145.029144,1,"48,109",c(326504.509444913, 5813722.42758537)
19746,-37.806989,34-High St/Cotham Rd (Kew),145.031302,1,109,c(326693.4826447, 5813775.47883941)
19747,-37.807475,35-Charles St/Cotham Rd (Kew),145.035549,1,109,c(327068.514584515, 5813729.41986921)
19748,-37.807799,36-Glenferrie Rd/Cotham Rd (Kew),145.038255,1,109,c(327307.514123944, 5813698.47311162)
19749,-37.808316,37-Belmont Ave/Cotham Rd (Kew),145.042773,1,109,c(327706.475394398, 5813649.45093115)
19750,-37.808706,38-Marshall Ave/Cotham Rd (Kew),145.046171,1,109,c(328006.537843801, 5813612.43961843)
19751,-37.809116,39-Thomas St/Cotham Rd (Kew),145.049749,1,109,c(328322.458544001, 5813573.52054514)
19752,-37.809523,40-St George's Hospital/Cotham Rd (Kew),145.053055,1,109,c(328614.471878724, 5813534.43104154)
19753,-37.810098,41-Kew Traffic School/Cotham Rd (Kew),145.057879,1,109,c(329040.487502165, 5813479.46464821)
19754,-37.829308,34-Kooyongkoot Rd/Riversdale Rd (Hawthorn),145.03864,1,"75,70",c(327391.515652771, 5811312.44866122)
19755,-37.829662,35-Robinson Rd/Riversdale Rd (Hawthorn),145.041528,1,"75,70",c(327646.515349473, 5811278.49484143)
19756,-37.829943,36-Auburn Rd/Riversdale Rd (Hawthorn East),145.043781,1,"75,70",c(327845.482479248, 5811251.47258005)
19757,-37.83038,37-Tooronga Rd/Riversdale Rd (Hawthorn East),145.047849,1,"75,70",c(328204.530647147, 5811210.46882883)
19758,-37.830839,38-Hastings Rd/Riversdale Rd (Hawthorn East),145.05162,1,"75,70",c(328537.485912828, 5811166.46738332)
19759,-37.831216,39-Camberwell Tram Depot/Riversdale Rd (Hawthorn East),145.054792,1,"75,70",c(328817.525313263, 5811130.46249708)
19760,-37.831489,40-Camberwell Junction/Riversdale Rd (Camberwell),145.057148,1,70,c(329025.494939791, 5811104.47899114)
19761,-37.831828,42-Fermanagh Rd/Riversdale Rd (Camberwell),145.060184,1,70,c(329293.496848883, 5811072.42412268)
19762,-37.832248,43-Trafalgar Rd/Riversdale Rd (Camberwell),145.063855,1,70,c(329617.5406406, 5811032.52084558)
19763,-37.832483,44-Derby St/Riversdale Rd (Camberwell),145.066064,1,70,c(329812.489906318, 5811010.47398528)
19764,-37.832942,46-Spencer Rd/Riversdale Rd (Camberwell),145.06987,1,70,c(330148.498178794, 5810966.47172054)
19765,-37.833276,47-Willow Gr/Riversdale Rd (Camberwell),145.072668,1,70,c(330395.504066415, 5810934.49661027)
19766,-37.833793,48-Cooloongatta Rd/Riversdale Rd (Camberwell),145.077245,1,70,c(330799.502179192, 5810885.42645083)
19767,-37.834084,49-Glyndon Rd/Riversdale Rd (Camberwell),145.079646,1,70,c(331011.489698614, 5810857.4876847)
19768,-37.834295,50-Wattle Valley Rd/Riversdale Rd (Canterbury),145.081516,1,70,c(331176.53002095, 5810837.4511552)
19769,-37.834534,51-Highfield Rd/Riversdale Rd (Camberwell),145.085145,1,70,c(331496.464505967, 5810817.49193421)
19770,-37.834923,52-Lockhart St/Riversdale Rd (Camberwell),145.088533,1,70,c(331795.510604414, 5810780.43806414)
19771,-37.835215,53-Essex Rd/Riversdale Rd (Camberwell),145.090968,1,70,c(332010.471304271, 5810752.41503272)
19772,-37.835531,54-Through Rd/Riversdale Rd (Camberwell),145.093801,1,70,c(332260.492966076, 5810722.44470861)
19773,-37.835762,55-Union Rd/Riversdale Rd (Canterbury),145.095818,1,70,c(332438.529327841, 5810700.43062191)
19774,-37.836065,56-Warrigal Rd/Riversdale Rd (Surrey Hills),145.098389,1,70,c(332665.485119703, 5810671.4264157)
19775,-37.836271,57-Glendale St/Riversdale Rd (Surrey Hills),145.10002,1,70,c(332809.468053734, 5810651.48828953)
19776,-37.836755,58-Wattle Park/1013 Riversdale Rd (Surrey Hills),145.10261,1,70,c(333038.507993184, 5810602.41469888)
19777,-37.836997,59-Alandale St/Riversdale Rd (Surrey Hills),145.104808,1,70,c(333232.467432616, 5810579.48839454)
19778,-37.810444,42-Burke Rd/Whitehorse Rd (Balwyn),145.060857,1,109,c(329303.448543261, 5813446.52108509)
19779,-37.837208,60-Ferndale St/Riversdale Rd (Surrey Hills),145.106689,1,70,c(333398.476331907, 5810559.43770362)
19781,-37.817876,58-Box Hill Central/Whitehorse Rd (Box Hill),145.122349,"1,2",109,c(334733.473223144, 5812732.41757293)
19782,-37.817421,57-Nelson Rd/Whitehorse Rd (Box Hill),145.118714,"1,2",109,c(334412.489467259, 5812776.4626058)
19783,-37.816884,56-Elgar Rd/Whitehorse Rd (Box Hill),145.114434,"1,2",109,c(334034.529914188, 5812828.45704154)
19784,-37.816341,55-Hood St/Whitehorse Rd (Mont Albert),145.109824,"1,2",109,c(333627.49283995, 5812880.50554778)
19785,-37.81548,54-Inglisby Rd/Whitehorse Rd (Mont Albert),145.102757,"1,2",109,c(333003.479224102, 5812963.43808063)
19786,-37.815112,53-Union Rd/Whitehorse Rd (Surrey Hills),145.099518,"1,2",109,c(332717.530502918, 5812998.4783601)
20482,-37.797488,15-Murphy St/Flemington Rd (North Melbourne),144.952385,1,"59,58",c(319722.4860738, 5814680.43515738)
20490,-37.801384,12-Flemington Rd/Peel St (North Melbourne),144.95673,1,58,c(320114.511400285, 5814256.48455016)
20491,-37.801548,12-Flemington Rd/Peel St (North Melbourne),144.956805,1,58,c(320121.533977369, 5814238.43320105)
20492,-37.803623,11-Queensberry St/Peel St (North Melbourne),144.956441,1,58,c(320094.524220114, 5814007.47337574)
20493,-37.803307,11-Queensberry St/Peel St (North Melbourne),144.956393,1,58,c(320089.509804674, 5814042.45463894)
20494,-37.829551,126-City Rd/Light Rail (South Melbourne),144.954442,1,96,c(319981.520950081, 5811126.49573639)
20495,-37.829189,126-City Rd/Light Rail (South Melbourne),144.954372,1,96,c(319974.462430141, 5811166.52805734)
20496,-37.833156,127-South Melbourne Station/Light Rail (South Melbourne),144.95549,1,96,c(320082.515991869, 5810728.47684243)
20497,-37.833035,127-South Melbourne Station/Light Rail (South Melbourne),144.955289,1,96,c(320064.542592336, 5810741.51223033)
20498,-37.840233,128-Albert Park Station/Light Rail (South Melbourne),144.958749,1,96,c(320386.517883471, 5809949.44516857)
20499,-37.840076,128-Albert Park Station/Light Rail (South Melbourne),144.958571,1,96,c(320370.455136618, 5809966.51959921)
20500,-37.845267,129-Melbourne Sports and Aquatic Centre/Light Rail (Middle Park),144.961667,1,96,c(320655.486280391, 5809396.44267663)
20501,-37.845483,129-Melbourne Sports and Aquatic Centre/Light Rail (Middle Park),144.961672,1,96,c(320656.453082887, 5809372.48355717)
20502,-37.849626,130-Middle Park Station/Light Rail (Middle Park),144.965684,1,96,c(321019.524737503, 5808920.45372679)
20503,-37.849585,130-Middle Park Station/Light Rail (Middle Park),144.965401,1,96,c(320994.496114527, 5808924.46442569)
20504,-37.853764,131-Fraser St/Light Rail (Middle Park),144.971026,1,96,c(321499.520797788, 5808471.50207648)
20505,-37.853983,131-Fraser St/Light Rail (Middle Park),144.971167,1,96,c(321512.46543123, 5808447.47362387)
20506,-37.859285,132-St Kilda Station/Fitzroy St (St Kilda),144.977637,1,96,c(322094.470386632, 5807871.48451723)
20507,-37.859044,132-St Kilda Station/Fitzroy St (St Kilda),144.977257,1,96,c(322060.476351763, 5807897.50550877)
20508,-37.86018,133-Canterbury Rd/Fitzroy St (St Kilda),144.976772,1,"3/3a,96,16",c(322020.546708434, 5807770.51475564)
20509,-37.859932,133-Canterbury Rd/Fitzroy St (St Kilda),144.977017,1,"3/3a,96,16",c(322041.48697213, 5807798.50583908)
20510,-37.861083,134-Park St/Fitzroy St (St Kilda),144.975258,1,"3/3a,96,16",c(321889.508471335, 5807667.42591607)
20511,-37.860957,134-Park St/Fitzroy St (St Kilda),144.975273,1,"3/3a,96,16",c(321890.535300709, 5807681.43658276)
20512,-37.862051,135-Acland St/Fitzroy St (St Kilda),144.973413,1,"3/3a,96,16",c(321729.524494151, 5807556.48218271)
20513,-37.862414,135-Jacka Bvd/Fitzroy St (St Kilda),144.973005,1,"3/3a,96,16",c(321694.515988038, 5807515.42518836)
20514,-37.865197,136-Alfred Square/The Esplanade (St Kilda),144.973486,1,"3/3a,96,16",c(321743.535618566, 5807207.52587881)
20515,-37.865293,136-Alfred Square/The Esplanade (St Kilda),144.973779,1,"3/3a,96,16",c(321769.546274354, 5807197.4295851)
20518,-37.866985,138-Luna Park/The Esplanade (St Kilda),144.976835,1,"3/3a,96,16",c(322042.462308572, 5807015.50751283)
20519,-37.867001,138-Luna Park/The Esplanade (St Kilda),144.97721,1,"3/3a,96,16",c(322075.468326137, 5807014.4446101)
20520,-37.868877,139-Belford St/Acland St (St Kilda),144.979944,1,96,c(322320.501695912, 5806811.48641566)
20522,-37.868807,139-Belford St/Acland St (St Kilda),144.980071,1,96,c(322331.480666235, 5806819.49765139)
20523,-37.865836,48-Hawthorn Rd/Dandenong Rd (Malvern),145.02644,1,16,c(326403.444781492, 5807236.47095658)
20524,-37.866057,48-Dandenong Rd/Glenferrie Rd (Malvern),145.02781,1,16,c(326524.49640612, 5807214.49156702)
20525,-37.866057,52-Dandenong Rd/Glenferrie Rd (Malvern),145.02781,1,16,c(326524.49640612, 5807214.49156702)
20526,-37.865264,53-Malvern Railway Station/Glenferrie Rd (Malvern),145.027774,1,16,c(326519.469442767, 5807302.4194865)
20527,-37.86418,53-Malvern Railway Station/Glenferrie Rd (Malvern),145.028156,1,16,c(326550.528555623, 5807423.42220296)
20528,-37.862478,54-Wattletree Rd/Glenferrie Rd (Malvern),145.028258,1,16,c(326555.500133221, 5807612.47438559)
20529,-37.862158,54-Wattletree Rd/Glenferrie Rd (Malvern),145.028505,1,16,c(326576.475867165, 5807648.44693725)
20530,-37.861148,55-Llaneast St/Glenferrie Rd (Malvern),145.028464,1,16,c(326570.497415694, 5807760.44392932)
20531,-37.861034,55-Edsall St/Glenferrie Rd (Malvern),145.028671,1,16,c(326588.44127646, 5807773.47210073)
20532,-37.859,56-Malvern Tram Depot/Glenferrie Rd (Malvern),145.028828,1,16,c(326597.513990327, 5807999.4688667)
20533,-37.858841,56-Malvern Tram Depot/Glenferrie Rd (Malvern),145.029048,1,16,c(326616.492984254, 5808017.52447755)
20534,-37.856825,57-High St/Glenferrie Rd (Malvern),145.029181,1,16,c(326623.455821012, 5808241.47819485)
20535,-37.856496,57-High St/Glenferrie Rd (Malvern),145.029429,1,16,c(326644.507627022, 5808278.45116149)
20536,-37.854074,58-Bell St/Glenferrie Rd (Malvern),145.029584,1,16,c(326652.484651568, 5808547.49714327)
20537,-37.854095,58-Sorrett Ave/Glenferrie Rd (Malvern),145.029777,1,16,c(326669.511371742, 5808545.51861458)
20538,-37.851836,59-Malvern Rd/Glenferrie Rd (Malvern),145.029939,1,16,c(326678.473699771, 5808796.49084823)
20539,-37.851525,59-Malvern Rd/Glenferrie Rd (Malvern),145.030186,1,16,c(326699.474453278, 5808831.46420132)
20540,-37.849662,60-Stonnington Pl/Glenferrie Rd (Malvern),145.030361,1,16,c(326710.506247093, 5809038.51795456)
20541,-37.849674,60-Stonnington Pl/Glenferrie Rd (Malvern),145.030508,1,16,c(326723.458114571, 5809037.46240043)
20542,-37.847704,61-Moorakyne Ave/Glenferrie Rd (Malvern),145.030731,1,16,c(326738.485354523, 5809256.48000135)
20543,-37.847734,61-Moorakyne Ave/Glenferrie Rd (Malvern),145.030878,1,16,c(326751.479896415, 5809253.41702563)
20544,-37.845737,62-Mayfield Ave/Glenferrie Rd (Malvern),145.031102,1,16,c(326766.508856243, 5809475.43187196)
20545,-37.845362,62-Mayfield Ave/Glenferrie Rd (Malvern),145.031328,1,16,c(326785.524821495, 5809517.46682796)
20546,-37.84394,63-Toorak Rd/Glenferrie Rd (Malvern),145.031434,1,16,c(326791.510709708, 5809675.45616343)
20547,-37.843646,63-Toorak Rd/Glenferrie Rd (Kooyong),145.031657,1,16,c(326810.463676935, 5809708.48750503)
20548,-37.842475,64-Mernda Rd/Glenferrie Rd (Kooyong),145.031666,1,16,c(326808.51583752, 5809838.45364456)
4124,-37.830982,127-York St/Clarendon St (South Melbourne),144.959526,1,12,c(320432.448480807, 5810977.49233124)
4125,-37.827223,126-City Rd/Clarendon St (South Melbourne),144.957869,1,12,c(320277.482856557, 5811391.42042747)
4126,-37.837614,130a-Raglan St/Clarendon St (South Melbourne),144.962582,1,12,c(320717.477748015, 5810247.43462308)
4127,-37.83952,130-Clarendon St/Albert Rd (South Melbourne),144.962871,1,12,c(320747.533349674, 5810036.48530708)
4128,-37.840688,131-Melbourne Sports & Aquatic Centre/Albert Rd (Albert Park),144.961111,1,12,c(320595.476632358, 5809903.49298601)
4129,-37.842451,132-Kerferd Rd/Canterbury Rd (Albert Park),144.959347,1,12,c(320444.519728508, 5809704.46597918)
4130,-37.844069,133-Canterbury Rd/Mills St (Middle Park),144.960132,1,12,c(320517.504788777, 5809526.42904369)
4131,-37.845597,134-Carter St/Mills St (Middle Park),144.958874,1,12,c(320410.526103727, 5809354.46024716)
4132,-37.84741,135-Richardson St/Mills St (Middle Park),144.957403,1,12,c(320285.490873008, 5809150.44064059)
4133,-37.849739,136-Mills St/Danks St (Middle Park),144.956077,1,12,c(320174.449907182, 5808889.44212857)
4134,-37.851361,137-Harold St/Danks St (Middle Park),144.959181,1,12,c(320451.530586882, 5808715.43298427)
4135,-37.860988,143-Fitzroy St/Park St (St Kilda),144.974453,1,12,c(321818.46184333, 5807676.43531651)
4136,-37.859794,142-Mary St/Park St (St Kilda West),144.97319,1,12,c(321704.4800925, 5807806.51054278)
4137,-37.857491,141-Deakin St/Park St (St Kilda West),144.970787,1,12,c(321487.511923445, 5808057.47369868)
20557,-37.833223,68-Callantina Rd/Glenferrie Rd (Hawthorn),145.033502,1,16,c(326948.457186434, 5810868.50985215)
20558,-37.831388,69-South St/Glenferrie Rd (Hawthorn),145.033665,1,16,c(326958.52230448, 5811072.42445045)
20559,-37.831112,69-South St/Glenferrie Rd (Hawthorn),145.033877,1,16,c(326976.539315222, 5811103.44712202)
20560,-37.828899,70-Riversdale Rd/Glenferrie Rd (Hawthorn),145.034094,1,16,c(326990.443324673, 5811349.41574941)
20561,-37.828632,70-Riversdale Rd/Glenferrie Rd (Hawthorn),145.034329,1,16,c(327010.509905068, 5811379.48229924)
20562,-37.826041,71-Urquhart St/Glenferrie Rd (Hawthorn),145.034613,1,16,c(327029.458029582, 5811667.52018056)
20563,-37.825973,71-Urquhart St/Glenferrie Rd (Hawthorn),145.034842,1,16,c(327049.451828222, 5811675.48432674)
20564,-37.824155,72-Manningtree Rd/Glenferrie Rd (Hawthorn),145.03497,1,16,c(327056.4870652, 5811877.45617276)
20565,-37.824023,72-Manningtree Rd/Glenferrie Rd (Hawthorn),145.03519,1,16,c(327075.53961816, 5811892.51420799)
20566,-37.822709,73-Burwood Rd/Glenferrie Rd (Hawthorn),145.03527,1,16,c(327079.506508891, 5812038.47024953)
20567,-37.822496,73-Burwood Rd/Glenferrie Rd (Hawthorn),145.035446,1,16,c(327094.504714301, 5812062.42508021)
20568,-37.820535,74-Glenferrie Railway Station/Glenferrie Rd (Hawthorn),145.035668,1,16,c(327109.479024852, 5812280.43976817)
20569,-37.820535,74-Glenferrie Station/Glenferrie Rd (Hawthorn),145.035668,1,16,c(327109.479024852, 5812280.43976817)
20570,-37.818881,75-Chrystobel Cres/Glenferrie Rd (Hawthorn),145.035962,1,16,c(327131.477129685, 5812464.5218017)
20571,-37.818606,75-Liddiard St/Glenferrie Rd (Hawthorn),145.036219,1,16,c(327153.461560593, 5812495.51731876)
20572,-37.816851,76-Johnson St/Glenferrie Rd (Hawthorn),145.036311,1,16,c(327157.479510651, 5812690.43131543)
20573,-37.816774,76-Johnson St/Glenferrie Rd (Hawthorn),145.036586,1,16,c(327181.511292045, 5812699.47899585)
20584,-37.814812,77-Barkers Rd/Glenferrie Rd (Hawthorn),145.036717,1,16,c(327188.438566387, 5812917.43390346)
20589,-37.814617,77-Barkers Rd/Glenferrie Rd (Hawthorn),145.036927,1,16,c(327206.491365744, 5812939.46434021)
20590,-37.812116,78-Fitzwilliam St/Glenferrie Rd (Hawthorn),145.037209,1,16,c(327225.474833918, 5813217.51010333)
20591,-37.812021,78-Fitzwilliam St/Glenferrie Rd (Hawthorn),145.037462,1,16,c(327247.533095332, 5813228.51428576)
20592,-37.810087,79-Wellington St/Glenferrie Rd (Hawthorn),145.037638,1,16,c(327258.522984866, 5813443.44699144)
20593,-37.809901,79-Wellington St/Glenferrie Rd (Hawthorn),145.037824,1,16,c(327274.443049798, 5813464.43326619)
20594,-37.807923,80-Cotham Rd/Glenferrie Rd (Kew),145.038115,1,16,c(327295.473920808, 5813684.46236325)
20595,-37.807896,80-Cotham Rd/Glenferrie Rd (Kew),145.038127,1,16,c(327296.456911378, 5813687.48037529)
20597,-37.868445,37-Chapel St/Carlisle St (St Kilda),144.990494,1,"3/3a,16",c(323247.502087253, 5806879.46478227)
20598,-37.868862,38-Balaclava Station/Carlisle St (Balaclava),144.993813,1,"3/3a,16",c(323540.47812736, 5806839.47859034)
20599,-37.869245,39-Carlisle Ave/Carlisle St (St Kilda),144.996736,1,"3/3a,16",c(323798.503505461, 5806802.49853293)
20647,-37.86961,40-Hotham St/Balaclava Rd (St Kilda East),144.999625,1,"3/3a,16",c(324053.506202461, 5806767.4539825)
20648,-37.869984,41-Vadlure Ave/Balaclava Rd (St Kilda East),145.002582,1,"3/3a,16",c(324314.5130005, 5806731.52104226)
20774,-37.737477,52-Hoffmans Rd/Keilor Rd (Essendon),144.892547,1,59,c(314303.492191609, 5821222.51415098)
20775,-37.757932,37-Buckley St/Pascoe Vale Rd (Essendon),144.926461,1,59,c(317342.45941714, 5819019.47817749)
20778,-37.820884,25-St James Park/Burwood Rd (Hawthorn),145.021027,1,75,c(325821.523477237, 5812214.5161667)
20779,-37.820958,25-St James Park/Burwood Rd (Hawthorn),145.021115,1,75,c(325829.461287534, 5812206.46145924)
20780,-37.821453,26-Hawthorn Railway Station/Burwood Rd (Hawthorn),145.024817,1,75,c(326156.474586831, 5812158.43083586)
20781,-37.821287,26-Hawthorn Railway Station/Burwood Rd (Hawthorn),145.024583,1,75,c(326135.487554215, 5812176.42100704)
20782,-37.821747,27-Burwood Rd/Power St (Hawthorn),145.026275,1,75,c(326285.501324369, 5812128.52670165)
20783,-37.821468,27-Power St/Burwood Rd (Hawthorn),145.026282,1,75,c(326285.449130611, 5812159.49869947)
20784,-37.824778,28-Wattle Rd/Power St (Hawthorn),145.025865,1,75,c(326256.518168382, 5811791.42625119)
20785,-37.82491,28-Wattle Rd/Power St (Hawthorn),145.025713,1,75,c(326243.456040156, 5811776.49285795)
20895,-37.793468,44-Burke Rd/Doncaster Rd (Balwyn North),145.064265,1,48,c(329564.461317375, 5815336.47017394)
20979,-37.811664,0-Bourke St/Spring St (Melbourne City),144.973246,1,35,c(321593.456956472, 5813147.42858635)
20980,-37.759651,38-Normanby Ave/High St (Thornbury),145.000321,1,86,c(323853.521297488, 5818970.41688475)
20981,-37.814566,D1-Stadium Precinct/La Trobe St (Docklands),144.946745,1,"35,86,30",c(319267.504949562, 5812774.46141601)
21042,-37.870342,42-Allan Rd/Balaclava Rd (Caulfield North),145.005585,1,"3/3a,16",c(324579.532430689, 5806697.44421699)
21057,-37.870748,43-Orrong Rd/Balaclava Rd (Caulfield North),145.008791,1,"3/3a,16",c(324862.491364941, 5806658.41639019)
21058,-37.871178,44-Otira Rd/Balaclava Rd (Caulfield North),145.012383,1,"3/3a,16",c(325179.483177394, 5806617.43639656)
21059,-37.871557,45-Kent Gr/Balaclava Rd (Caulfield North),145.015101,1,"3/3a,16",c(325419.463982625, 5806580.47144568)
21060,-37.871894,46-Kooyong Rd/Balaclava Rd (Caulfield North),145.017957,1,"3/3a,16",c(325671.471518061, 5806548.42114183)
21061,-37.832084,41-Burke Rd/Camberwell Rd (Camberwell),145.057723,"1,2",75,c(329077.467131393, 5811039.50865281)
21062,-37.833049,42-Camberwell Primary School/Camberwell Rd (Camberwell),145.058868,"1,2",75,c(329180.478221568, 5810934.52557885)
21063,-37.833339,42-Camberwell Primary School/Camberwell Rd (Camberwell),145.058929,"1,2",75,c(329186.501549776, 5810902.45930714)
21064,-37.834566,43-Camberwell Civic Centre/Camberwell Rd (Camberwell),145.060635,"1,2",75,c(329339.474983847, 5810769.41868533)
21065,-37.834809,43-Camberwell Civic Centre/Camberwell Rd (Camberwell),145.060663,"1,2",75,c(329342.506252298, 5810742.50556007)
21066,-37.835924,44-Trafalgar Rd/Camberwell Rd (Camberwell),145.062156,"1,2",75,c(329476.460573997, 5810621.50655055)
21067,-37.836417,44-Trafalgar Rd/Camberwell Rd (Camberwell),145.062518,"1,2",75,c(329509.467489034, 5810567.47008943)
21068,-37.837706,45-Bowen St/Camberwell Rd (Camberwell),145.0642,"1,2",75,c(329660.449597317, 5810427.49883733)
21069,-37.837913,45-Bowen St/Camberwell Rd (Camberwell),145.064195,"1,2",75,c(329660.482299024, 5810404.51992228)
21070,-37.839404,46-Christowel St/Camberwell Rd (Camberwell),145.066076,"1,2",75,c(329829.442171765, 5810242.50849548)
21071,-37.839814,46-Acheron Ave/Camberwell Rd (Camberwell),145.066304,"1,2",75,c(329850.469863071, 5810197.42450696)
21072,-37.840809,47-Maple Cres/Camberwell Rd (Camberwell),145.067642,"1,2",75,c(329970.478335767, 5810089.45750598)
21073,-37.841154,47-Orange Gr/Camberwell Rd (Camberwell),145.067815,"1,2",75,c(329986.508711523, 5810051.48336626)
21074,-37.842122,48-Orrong Cres/Camberwell Rd (Camberwell),145.069119,"1,2",75,c(330103.473506533, 5809946.44894679)
21075,-37.842339,48-Glen Iris Rd/Camberwell Rd (Camberwell),145.069159,"1,2",75,c(330107.487880362, 5809922.44341781)
21076,-37.844142,49-Tyrone St/Camberwell Rd (Camberwell),145.07143,"1,2",75,c(330311.452469737, 5809726.49765247)
21077,-37.844432,49-Wilson Gr/Camberwell Rd (Camberwell),145.071525,"1,2",75,c(330320.480242042, 5809694.49283207)
21078,-37.845914,50-Fordham Gardens/Camberwell Rd (Camberwell),145.073407,"1,2",75,c(330489.487565234, 5809533.45902874)
21079,-37.845911,50-Smith Rd/Camberwell Rd (Camberwell),145.073203,"1,2",75,c(330471.51942045, 5809533.42788867)
21080,-37.847843,51-Toorak Rd/Camberwell Rd (Camberwell),145.075618,"1,2",75,c(330688.463507394, 5809323.42421704)
21081,-37.8482,52-Summerhill Rd/Toorak Rd (Camberwell),145.077075,"1,2",75,c(330817.475078614, 5809286.44817134)
21082,-37.848359,52-Summerhill Rd/Toorak Rd (Camberwell),145.077412,"1,2",75,c(330847.487551013, 5809269.42212604)
21083,-37.848737,53-Highfield Rd/Toorak Rd (Camberwell),145.081812,"1,2",75,c(331235.49867571, 5809235.44198208)
21084,-37.848916,53-Lithgow St/Toorak Rd (Camberwell),145.082296,"1,2",75,c(331278.511334324, 5809216.45355215)
21085,-37.849039,54-Oberwyl Rd/Toorak Rd (Camberwell),145.084304,"1,2",75,c(331455.481145595, 5809206.4295306)
21086,-37.849197,54-Grandview Ave/Toorak Rd (Camberwell),145.084596,"1,2",75,c(331481.5301353, 5809189.42982394)
21087,-37.849321,55-Through Rd/Toorak Rd (Camberwell),145.086718,"1,2",75,c(331668.510918378, 5809179.49683229)
21088,-37.849519,55-Beryl St/Toorak Rd (Camberwell),145.087258,"1,2",75,c(331716.475172746, 5809158.49958652)
21089,-37.849656,56-Barkly St/Toorak Rd (Camberwell),145.089596,"1,2",75,c(331922.521343278, 5809147.51283182)
21090,-37.849853,56-Alfred Rd/Toorak Rd (Camberwell),145.090057,"1,2",75,c(331963.51377024, 5809126.48139843)
21091,-37.849981,57-Fairview Ave/Toorak Rd (Camberwell),145.092361,"1,2",75,c(332166.528869153, 5809116.42566728)
21092,-37.850158,57-Queens Pde/Toorak Rd (Camberwell),145.092731,"1,2",75,c(332199.492896783, 5809097.44701645)
21093,-37.850328,58-Warrigal Rd/Burwood Hwy (Camberwell),145.095466,"1,2",75,c(332440.517476435, 5809083.49534591)
21094,-37.850433,58-Warrigal Rd/Burwood Hwy (Burwood),145.095838,"1,2",75,c(332473.476068373, 5809072.50829638)
21095,-37.8507,59-Somers St/Burwood Hwy (Burwood),145.098979,"1,2",75,c(332750.447935626, 5809048.52058822)
21096,-37.850742,59-Gilmour St/Burwood Hwy (Burwood),145.09874,"1,2",75,c(332729.542174486, 5809043.42902116)
21097,-37.850444,60-Roslyn St/Burwood Hwy (Burwood),145.102089,"1,2",75,c(333023.513698389, 5809082.49161236)
21098,-37.850508,60-Millicent St/Burwood Hwy (Burwood),145.102155,"1,2",75,c(333029.486357111, 5809075.50950274)
21099,-37.849967,61-Presbyterian Ladies College/Burwood Hwy (Burwood),145.105476,"1,2",75,c(333320.473540785, 5809141.47617085)
21100,-37.84998,61-Presbyterian Ladies College/Burwood Hwy (Burwood),145.105715,"1,2",75,c(333341.535346127, 5809140.46493562)
21101,-37.849505,62-Elgar Rd/Burwood Hwy (Burwood),145.108704,"1,2",75,c(333603.438522194, 5809198.49774284)
21102,-37.849591,62-Elgar Rd/Burwood Hwy (Burwood),145.108441,"1,2",75,c(333580.50844841, 5809188.49180752)
21103,-37.849989,63-Deakin University/Burwood Hwy (Burwood),145.115238,"1,2",75,c(334179.438634501, 5809156.42748428)
21104,-37.850081,63-Deakin University/Burwood Hwy (Burwood),145.115407,"1,2",75,c(334194.532446093, 5809146.51159563)
21105,-37.850551,64-Station St/Burwood Hwy (Burwood),145.119395,"1,2",75,c(334546.48511973, 5809101.43773048)
21106,-37.850606,64-Station St/Burwood Hwy (Burwood),145.120587,"1,2",75,c(334651.485087201, 5809097.44810701)
21107,-37.85126,65-Starling St/Burwood Hwy (Burwood),145.125981,"1,2",75,c(335127.533401687, 5809034.416122)
21108,-37.851364,65-Starling St/Burwood Hwy (Burwood),145.126319,"1,2",75,c(335157.507782422, 5809023.47849381)
21109,-37.85202,66-Middleborough Rd/Burwood Hwy (Burwood),145.131837,"1,2",75,c(335644.478276096, 5808960.41648368)
21110,-37.852023,66-Middleborough Rd/Burwood Hwy (Burwood),145.133212,"1,2",75,c(335765.450252206, 5808962.50709065)
21111,-37.851479,67-Old Burwood Rd/Burwood Hwy (Burwood East),145.138136,"1,2",75,c(336197.491564391, 5809031.52037116)
21112,-37.851482,67-Old Burwood Rd/Burwood Hwy (Burwood East),145.138295,"1,2",75,c(336211.498411258, 5809031.4700561)
21113,-37.851286,68-Benwerrin Reserve/Burwood Hwy (Burwood East),145.14188,"1,2",75,c(336526.483260827, 5809059.50613752)
21114,-37.851379,68-Benwerrin Reserve/Burwood Hwy (Burwood East),145.142037,"1,2",75,c(336540.499056916, 5809049.45474693)
21115,-37.851851,69-Keats St/Burwood Hwy (Burwood East),145.146242,"1,2",75,c(336911.533139092, 5809004.44068181)
21116,-37.851942,69-Highview Gr/Burwood Hwy (Burwood East),145.146342,"1,2",75,c(336920.507532786, 5808994.51833835)
21117,-37.852576,70-Blackburn Rd/Burwood Hwy (Burwood East),145.151122,"1,2",75,c(337342.47681429, 5808932.50343422)
21118,-37.852694,70-Blackburn Rd/Burwood Hwy (Burwood East),145.152847,"1,2",75,c(337494.519336032, 5808922.41602777)
21119,-37.853621,71-Sevenoaks Rd/Burwood Hwy (Burwood East),145.158541,"1,2",75,c(337997.508895278, 5808829.45153764)
21120,-37.853592,71-Sevenoaks Rd/Burwood Hwy (Burwood East),145.158985,"1,2",75,c(338036.531011034, 5808833.43830395)
21121,-37.854365,72-Lakeside Dr/Burwood Hwy (Burwood East),145.164637,"1,2",75,c(338535.496780698, 5808757.4559258)
21122,-37.854414,72-Lakeside Dr/Burwood Hwy (Burwood East),145.166068,"1,2",75,c(338661.505607376, 5808754.49794873)
21123,-37.854763,73-Springvale Rd/Burwood Hwy (Burwood East),145.168196,"1,2",75,c(338849.487445526, 5808719.44604254)
21124,-37.854938,73-Springvale Rd/Burwood Hwy (Vermont South),145.170158,"1,2",75,c(339022.487505888, 5808703.41792658)
21125,-37.855544,74-Stanley Rd/Burwood Hwy (Vermont South),145.174974,"1,2",75,c(339447.526621433, 5808644.46373207)
21126,-37.855556,74-Stanley Rd/Burwood Hwy (Vermont South),145.174598,"1,2",75,c(339414.454380114, 5808642.48823647)
21127,-37.856445,75-Vermont South Shopping Centre/Burwood Hwy (Vermont South),145.18193,"1,2",75,c(340061.459113669, 5808556.43085253)
2113,-37.73584,36-Rogers St/Sydney Rd (Coburg),144.966056,1,19,c(320777.455918354, 5821547.51534346)
21196,-37.738599,51-Bradshaw St/Keilor Rd (Essendon),144.895829,1,59,c(314595.526434505, 5821104.51604321)
21231,-37.820834,1-Spencer St/Flinders St (Melbourne City),144.955853,1,"70,75,35",c(320084.523006556, 5812096.50388793)
21232,-37.821051,1-Spencer St/Flinders St (Melbourne City),144.955381,1,"70,75,35",c(320043.505956565, 5812071.51594213)
21233,-37.82031,2-Melbourne Aquarium/Flinders St (Melbourne City),144.957821,1,"70,75,35",c(320256.494926912, 5812158.43784344)
21234,-37.820109,2-Melbourne Aquarium/Flinders St (Melbourne City),144.958213,1,"70,75,35",c(320290.516660015, 5812181.50320598)
21961,-37.753502,29-Moore St/Sydney Rd (Coburg),144.964415,1,19,c(320675.493209614, 5819584.5021918)
21962,-37.774656,20-Barkly Square/Sydney Rd (Brunswick),144.960929,1,19,c(320419.523829366, 5817230.45582404)
21963,-37.867325,35-Carlisle St/St Kilda Rd (St Kilda),144.986636,1,"67,3/3a",c(322905.463265746, 5806996.42684271)
21964,-37.831594,40-Camberwell Junction/Camberwell Rd (Camberwell),145.056929,"1,2",75,c(329006.473527517, 5811092.43351154)
21966,-37.810648,21-Church St/Victoria St (Richmond),145.000797,1,"12,109",c(324016.50983936, 5813312.43375003)
22100,-37.808919,15-Smith St/Victoria Pde (Fitzroy),144.982908,1,"12,109",c(322437.478490561, 5813470.43933756)
22109,-37.856966,131-St Kilda Rd/Fitzroy St (St Kilda),144.982201,1,"3/3a,16",c(322490.447479962, 5808137.50151134)
22110,-37.856797,131-St Kilda Rd/Fitzroy St (St Kilda),144.982331,1,"3/3a,16",c(322501.476005345, 5808156.50429218)
22111,-37.85793,132-Princes St/Fitzroy St (St Kilda),144.980573,1,"3/3a,16",c(322349.536149015, 5808027.43278477)
22112,-37.858049,132-Princes St/Fitzroy St (St Kilda),144.980194,1,"3/3a,16",c(322316.47049324, 5808013.50819668)
22152,-37.814215,7-Exhibition St/Collins St (Melbourne City),144.970712,1,"11,12,48,109",c(321376.522059551, 5812859.5159093)
22153,-37.814383,7-Exhibition St/Collins St (Melbourne City),144.970514,1,"11,12,48,109",c(321359.496839849, 5812840.49162151)
22305,-37.737231,52-Treadwell Rd/Keilor Rd (Niddrie),144.89235,1,59,c(314285.52394943, 5821249.41763221)
2232,-37.863985,49-Tooronga Rd/Wattletree Rd (Malvern East),145.040278,1,5,c(327616.463668537, 5807467.52933068)
22320,-37.769315,48-Wests Rd/Cordite Ave (Maribyrnong),144.882425,1,57,c(313491.496609385, 5817669.41840054)
22559,-37.783218,22-Scotchmer St/St Georges Rd (Fitzroy North),144.984027,1,11,c(322474.461460508, 5816324.49312555)
22560,-37.81995,23-Hawthorn Bridge/Bridge Rd (Hawthorn),145.016371,1,"75,48",c(325409.495957881, 5812309.45668935)
22561,-37.820019,23-Hawthorn Bridge/Bridge Rd (Hawthorn),145.016221,1,"75,48",c(325396.444189378, 5812301.52610461)
22612,-37.8263,116-City Rd/Kings Way (Southbank),144.960803,1,58,c(320533.488310096, 5811499.48994306)
22903,-37.818167,7A-William Barak Bridge/Melbourne Park (Melbourne City),144.976204,1,70,c(321869.509315903, 5812431.4584585)
22904,-37.818323,7A-William Barak Bridge/Melbourne Park (Melbourne City),144.975825,1,70,c(321836.515022587, 5812413.42801911)
378,-37.730439,39-Mercy College/Sydney Rd (Coburg North),144.963753,1,19,c(320561.470231691, 5822142.42164844)
398,-37.860942,41-Armadale St/Wattletree Rd (Armadale),145.017796,1,5,c(325631.497543223, 5807763.42217968)
4039,-37.833153,128-Dorcas St/Clarendon St (South Melbourne),144.960535,1,12,c(320526.522490906, 5810738.51656338)
4084,-37.835434,129-Park St/Clarendon St (South Melbourne),144.961585,1,12,c(320624.437877867, 5810487.42388406)
409,-37.861189,42-Kooyong Rd/Wattletree Rd (Armadale),145.019619,1,5,c(325792.463071683, 5807739.41326131)
19082,-37.889938,63-Maroona Rd/Glenhuntly Rd (Carnegie),145.047255,1,67,c(328290.541256165, 5804600.49953203)
19083,-37.890237,64-Mernda Ave/Glenhuntly Rd (Carnegie),145.049487,1,67,c(328487.519896223, 5804571.43065421)
19084,-37.890517,65-Mimosa Rd/Glenhuntly Rd (Carnegie),145.051754,1,67,c(328687.523761714, 5804544.52848963)
19085,-37.890781,66-Truganini Rd/Glenhuntly Rd (Carnegie),145.054066,1,67,c(328891.446468837, 5804519.47175518)
19086,-37.892654,67-Centre Rd/Truganini Rd (Carnegie),145.054495,1,67,c(328933.519564212, 5804312.42107566)
19087,-37.812254,64-Baker St/Church St (Richmond),145.000424,1,78,c(323987.490526011, 5813133.51497917)
19088,-37.81433,63-Kent St/Church St (Richmond),145.000039,1,78,c(323958.511556766, 5812902.43136441)
19089,-37.815749,62-Highett St/Church St (Richmond),144.999773,1,78,c(323938.463399131, 5812744.4665249)
19090,-37.818426,61-Bridge Rd/Church St (Richmond),144.999292,1,78,c(323902.487214947, 5812446.5094804)
19091,-37.820322,60-Abinger St/Church St (Richmond),144.998957,1,78,c(323877.523410579, 5812235.48407941)
19092,-37.821742,59-St Ignatius Church/Church St (Richmond),144.998714,1,78,c(323859.50990521, 5812077.45239347)
19093,-37.823727,58-Gipps St/Church St (Richmond),144.998354,1,78,c(323832.542442472, 5811856.51206511)
19094,-37.825551,57-Swan St/Church St (Richmond),144.998032,1,78,c(323808.52118727, 5811653.49945028)
19095,-37.826638,56-East Richmond Railway Station/Church St (Richmond),144.997843,1,78,c(323794.471828425, 5811532.52087544)
19096,-37.828768,55-Gibbons St/Church St (Richmond),144.997456,1,78,c(323765.477704256, 5811295.44014992)
19097,-37.830472,54-Balmain St/Church St (Richmond),144.996967,1,78,c(323726.5053982, 5811105.42493892)
19098,-37.832827,53-Howard St/Church St (Richmond),144.996608,1,78,c(323700.522756089, 5810843.42930574)
19100,-37.836944,51-Malcolm St/Chapel St (South Yarra),144.996042,1,78,c(323660.490293409, 5810385.50757058)
19101,-37.839346,50-Toorak Rd/Chapel St (South Yarra),144.995784,1,78,c(323643.528259344, 5810118.47924678)
19102,-37.842027,49-Arthur St/Chapel St (South Yarra),144.994973,1,78,c(323578.541406523, 5809819.44560669)
19103,-37.843639,48-Wilson St/Chapel St (South Yarra),144.994895,1,78,c(323575.509124201, 5809640.42174977)
19104,-37.846701,47-Malvern Rd/Chapel St (South Yarra),144.994255,1,78,c(323526.484206591, 5809299.43573211)
19105,-37.848948,46-Chatham St/Chapel St (Prahran),144.993921,1,78,c(323502.477099906, 5809049.46041213)
19106,-37.851725,45-High St/Chapel St (Prahran),144.993494,1,78,c(323471.532063849, 5808740.50528545)
19107,-37.853989,44-Duke St/Chapel St (Prahran),144.993046,1,78,c(323437.497790387, 5808488.42534335)
19108,-37.856127,43-Windsor Railway Station/Chapel St (Prahran),144.992647,1,78,c(323407.504602014, 5808250.43016527)
19109,-37.85742,42-Dandenong Rd/Chapel St (Prahran),144.992419,1,78,c(323390.50981533, 5808106.51540446)
19110,-37.859379,41-St Michaels Grammar School/Chapel St (St Kilda East),144.992081,1,78,c(323365.477401395, 5807888.4897758)
19111,-37.861374,40-Alma Rd/Chapel St (St Kilda East),144.991732,1,78,c(323339.51970894, 5807666.45729553)
19112,-37.863324,39-Argyle St/Chapel St (St Kilda East),144.991395,1,78,c(323314.533672404, 5807449.43128096)
19113,-37.865201,38-Inkerman St/Chapel St (St Kilda East),144.991037,1,78,c(323287.538147164, 5807240.46497628)
19115,-37.868226,36-St Kilda Town Hall/Carlisle St (St Kilda),144.98876,1,"3/3a,16",c(323094.464038799, 5806900.47685125)
19116,-37.86821,37-Carlisle St/Chapel St (St Kilda),144.990477,1,78,c(323245.452008395, 5806905.50876431)
19118,-37.868081,35-Brighton Rd/Carlisle St (St Kilda),144.987673,1,"3/3a,16",c(322998.478634806, 5806914.50370313)
19119,-37.867594,34-Mitchell St/Carlisle St (St Kilda),144.983969,1,"3/3a,16",c(322671.47445475, 5806961.51916522)
19123,-37.848948,36-Canterbury Rd/Malvern Rd (Toorak),145.009321,1,72,c(324857.50333799, 5809078.47038875)
19124,-37.848594,35-Lorne Rd/Malvern Rd (Toorak),145.006489,1,72,c(324607.497124541, 5809112.44132913)
19125,-37.84819,34-Williams Rd/Malvern Rd (Toorak),145.003409,1,72,c(324335.512916725, 5809151.48000006)
19126,-37.847881,33-Hobson St/Malvern Rd (South Yarra),145.001155,1,72,c(324136.450204471, 5809181.5206065)
19127,-37.84745,32-Bendigo St/Malvern Rd (Prahran),144.998042,1,72,c(323861.513813204, 5809223.47809934)
19128,-37.846934,31-Chapel St/Malvern Rd (Prahran),144.994215,1,72,c(323523.523508212, 5809273.50395796)
19129,-37.846706,30-Prahran Market/Commercial Rd (Prahran),144.992425,1,72,c(323365.47899151, 5809295.41510589)
19130,-37.846514,29-Porter St/Commercial Rd (Prahran),144.990714,1,72,c(323214.456626905, 5809313.48777932)
19131,-37.846073,28-Braille Library/Commercial Rd (Prahran),144.987556,1,72,c(322935.524890752, 5809356.43793865)
19132,-37.84577,27-Punt Rd/Commercial Rd (Prahran),144.985155,1,72,c(322723.539368972, 5809385.49690785)
19133,-37.845361,26-Alfred Hospital/Commercial Rd (Prahran),144.982313,1,72,c(322472.460045848, 5809425.48575006)
19135,-37.867253,33-Barkly St/Carlisle St (St Kilda),144.981387,1,"3/3a,16",c(322443.528556513, 5806994.43907726)
19136,-37.867042,32-Havelock St/Carlisle St (St Kilda),144.978585,1,"3/3a,16",c(322196.542489122, 5807012.52232433)
19250,-37.802826,13-Curzon St/Queensberry St (North Melbourne),144.947944,1,57,c(319344.456884851, 5814079.52115645)
19251,-37.802987,12-North Melbourne Town Hall/Queensberry St (North Melbourne),144.949405,1,57,c(319473.47361601, 5814064.47835215)
19253,-37.799478,14-Royal Melbourne Hospital/Flemington Rd (Parkville),144.954886,1,"59,58",c(319947.529941817, 5814464.43622985)
19254,-37.796419,16-Harker St/Flemington Rd (Parkville),144.951052,1,"59,58",c(319602.504722637, 5814796.48720863)
19256,-37.794282,19-Royal Childrens Hospital/Flemington Rd (North Melbourne),144.948363,1,"59,58",c(319360.53710989, 5815028.42270163)
19259,-37.788276,22-Flemington Bridge Station/Flemington Rd (North Melbourne),144.940932,1,59,c(318691.497804776, 5815680.50062549)
19260,-37.785927,23-Flemington Community Centre/Mt Alexander Rd (Flemington),144.939055,1,59,c(318520.45200792, 5815937.51682461)
19261,-37.783936,24-Mooltan St/Mt Alexander Rd (Flemington),144.936999,1,59,c(318334.515050606, 5816154.45397307)
19262,-37.78244,25-Mount Alexander College/Mt Alexander Rd (Flemington),144.933941,1,59,c(318061.545428415, 5816314.5093498)
19263,-37.78112,26-Wellington St/Mt Alexander Rd (Flemington),144.932626,1,59,c(317942.485665431, 5816458.42742088)
19264,-37.779437,27-Essendon Tram Depot/Mt Alexander Rd (Ascot Vale),144.93122,1,59,c(317814.50875448, 5816642.44374675)
19265,-37.777457,28-Middle St/Mt Alexander Rd (Ascot Vale),144.929833,1,59,c(317687.477095433, 5816859.45237519)
19266,-37.775542,29-Warrick St/Mt Alexander Rd (Ascot Vale),144.928535,1,59,c(317568.462649725, 5817069.42285141)
19267,-37.772431,30-Ormond Rd/Mt Alexander Rd (Moonee Ponds),144.926908,1,59,c(317417.486076173, 5817411.4550474)
19268,-37.770599,31-Montgomery St/Mt Alexander Rd (Moonee Ponds),144.926233,1,59,c(317353.521336084, 5817613.43086099)
19269,-37.766935,32-Moonee Ponds Junction/Pascoe Vale Rd (Moonee Ponds),144.924916,1,"82,59",c(317228.501733762, 5818017.43593983)
19270,-37.764313,34-Moonee Valley Civic Centre/Pascoe Vale Rd (Moonee Ponds),144.925455,1,59,c(317269.520150489, 5818309.43880733)
19271,-37.762526,35-Queens Park/Pascoe Vale Rd (Moonee Ponds),144.925811,1,59,c(317296.486259802, 5818508.43514532)
19272,-37.75974,36-Salisbury St/Pascoe Vale Rd (Moonee Ponds),144.926286,1,59,c(317331.493847715, 5818818.50901391)
19274,-37.755812,38-Pascoe Vale Rd/Fletcher St (Essendon),144.925817,1,59,c(317280.50283203, 5819253.47211024)
19275,-37.75547,39-Hoddle St/Fletcher St (Essendon),144.922762,1,59,c(317010.511803965, 5819285.44941178)
19276,-37.755172,40-Nicholson St/Fletcher St (Essendon),144.920205,1,59,c(316784.491462021, 5819313.50981312)
19277,-37.754928,41-Fletcher St/Napier St (Essendon),144.917601,1,59,c(316554.478249984, 5819335.48020021)
19278,-37.824677,8-Richmond Station/Swan St (Richmond),144.989057,1,70,c(323016.485354468, 5811733.51072868)
19279,-37.82524,9-Lennox St/Swan St (Richmond),144.993484,1,70,c(323407.48274992, 5811679.42344809)
19280,-37.825527,10-Swan Street Shopping Centre/Swan St (Richmond),144.996055,1,70,c(323634.441224856, 5811652.43362197)
19281,-37.82576,11-Church St/Swan St (Richmond),144.998094,1,70,c(323814.468390057, 5811630.42666912)
19282,-37.826259,12-Coppin St/Swan St (Richmond),145.00258,1,70,c(324210.498083933, 5811583.5037742)
19283,-37.826506,13-Edinburgh St/Swan St (Burnley),145.004902,1,70,c(324415.459848856, 5811560.468447)
19294,-37.826791,14-Burnley St/Swan St (Burnley),145.00736,1,70,c(324632.487624334, 5811533.45916345)
19295,-37.827048,15-Stawell St/Swan St (Burnley),145.009784,1,70,c(324846.468768437, 5811509.49663632)
19296,-37.827262,16-Park Gr/Swan St (Burnley),145.011778,1,70,c(325022.450658223, 5811489.48547496)
19297,-37.827468,17-Madden Gr/Swan St (Burnley),145.016511,1,70,c(325439.540409874, 5811475.48422611)
19298,-37.826663,18-Yarra Bvd/Swan St (Burnley),145.019554,1,70,c(325705.453161972, 5811570.49045958)
19299,-37.827393,29-Power St/Riversdale Rd (Hawthorn),145.025443,1,"75,70",c(326225.516756223, 5811500.46267065)
19300,-37.828211,30-Through St/Riversdale Rd (Hawthorn),145.029068,1,"75,70",c(326546.47643882, 5811416.43140411)
19301,-37.828506,31-Fordholm Rd/Riversdale Rd (Hawthorn),145.031628,1,"75,70",c(326772.481123757, 5811388.4565401)
19302,-37.828842,32-Glenferrie Rd/Riversdale Rd (Hawthorn),145.034471,1,"75,70",c(327023.516216991, 5811356.43638772)
19303,-37.829159,33-Berkeley St/Riversdale Rd (Hawthorn),145.037258,1,"75,70",c(327269.529924236, 5811326.42129907)
19304,-37.826076,125-Port Junction/79 Whiteman St (Southbank),144.956208,1,"12,96,109",c(320128.497394199, 5811515.50616035)
19305,-37.832171,22-Dorcas St/Eastern Rd (South Melbourne),144.965186,1,1,c(320933.467597231, 5810856.41462228)
19306,-37.834508,23-Moray St/Park St (South Melbourne),144.964349,1,1,c(320865.456262122, 5810595.48711926)
19307,-37.835223,24-Clarendon St/Park St (South Melbourne),144.961944,1,1,c(320655.546077198, 5810511.52362262)
19308,-37.836138,25-Cecil St/Park St (South Melbourne),144.958566,1,1,c(320360.455826398, 5810403.5008297)
19309,-37.836642,26-Ferrars St/Park St (South Melbourne),144.956973,1,1,c(320221.485547145, 5810344.50717909)
19310,-37.837329,27-Montague St/Park St (South Melbourne),144.954466,1,1,c(320002.521973766, 5810263.43557134)
19311,-37.840423,28-Bridport St/Montague St (Albert Park),144.955721,1,1,c(320120.51458581, 5809922.53212598)
19312,-37.841725,29-Bridport St/Victoria Ave (Albert Park),144.953367,1,1,c(319916.523743711, 5809773.5112954)
19313,-37.843787,30-Richardson St/Victoria Ave (Albert Park),144.951685,1,1,c(319773.504490282, 5809541.45203415)
19314,-37.845767,31-Graham St/Victoria Ave (Albert Park),144.950016,1,1,c(319631.465723787, 5809318.51380751)
19322,-37.838028,124-Walsh St/Toorak Rd (South Yarra),144.984536,1,58,c(322650.505580594, 5810243.42896697)
19323,-37.83821,125-Punt Rd/Toorak Rd (South Yarra),144.986269,1,58,c(322803.455360639, 5810226.51627888)
19324,-37.838624,126-Myrtle St/Toorak Rd (South Yarra),144.989349,1,58,c(323075.509591492, 5810186.41832825)
19325,-37.838986,127-South Yarra Railway Station/Toorak Rd (South Yarra),144.992089,1,58,c(323317.498103485, 5810151.44009602)
19326,-37.839376,128-Chapel St/Toorak Rd (South Yarra),144.995431,1,58,c(323612.52095498, 5810114.48636099)
19327,-37.839771,129-Tivoli Rd/Toorak Rd (South Yarra),144.998488,1,58,c(323882.492572582, 5810076.42568938)
19328,-37.840209,130-Hawksburn Rd/Toorak Rd (South Yarra),145.001988,1,58,c(324191.530069971, 5810034.41650239)
19329,-37.840514,131-Williams Rd/Toorak Rd (South Yarra),145.004582,1,58,c(324420.541268001, 5810005.45324676)
19330,-37.840965,132-Toorak Village/Toorak Rd (Toorak),145.008342,1,58,c(324752.475747854, 5809962.47387571)
19331,-37.841228,133-Grange Rd/Toorak Rd (Toorak),145.010585,1,58,c(324950.495032499, 5809937.50084881)
19332,-37.841615,134-Orrong Rd/Toorak Rd (Toorak),145.013734,1,58,c(325228.512058391, 5809900.45723016)
19333,-37.84204,135-Woorigoleen Rd/Toorak Rd (Toorak),145.017541,1,58,c(325564.525634389, 5809860.41973177)
19334,-37.842314,136-Irving Rd/Toorak Rd (Toorak),145.019954,1,58,c(325777.517919183, 5809834.51600988)
19335,-37.842687,137-Kooyong Rd/Toorak Rd (Toorak),145.022819,1,58,c(326030.498410359, 5809798.47330344)
19336,-37.843167,138-Moonga Rd/Toorak Rd (Toorak),145.026693,1,58,c(326372.523166165, 5809752.42592359)
19338,-37.843618,139-Glenferrie Rd/Toorak Rd (Toorak),145.029988,1,58,c(326663.53577981, 5809708.50552936)
19340,-37.797027,112-Lygon St/Elgin St (Carlton),144.966355,1,"6,1",c(320951.442237725, 5814758.44945023)
19341,-37.794138,113-Lytton St/Lygon St (Carlton),144.968127,1,"6,1",c(321100.526268821, 5815082.42399895)
19342,-37.792125,114-Princes St/Lygon St (Carlton North),144.968466,1,"6,1",c(321125.500519239, 5815306.44976284)
19343,-37.789285,115-Melbourne Cemetery/Lygon St (Carlton North),144.968952,1,"6,1",c(321161.448496421, 5815622.52679428)
19344,-37.787201,116-Fenwick St/Lygon St (Carlton North),144.969305,1,"6,1",c(321187.524358464, 5815854.44931934)
19345,-37.784083,117-Richardson St/Lygon St (Carlton North),144.969822,1,"6,1",c(321225.535418067, 5816201.43445204)
19346,-37.781539,118-Pigdon St/Lygon St (Carlton North),144.970232,1,"6,1",c(321255.517564376, 5816484.50833766)
19347,-37.779886,119-Park St/Lygon St (Carlton North),144.970493,1,"6,1",c(321274.522056553, 5816668.43671196)
19348,-37.778115,120-Brunswick Rd/Lygon St (Brunswick),144.97078,1,"6,1",c(321295.52644497, 5816865.50732668)
19349,-37.775553,121-Weston St/Lygon St (Brunswick East),144.971122,1,"6,1",c(321319.479002342, 5817150.44783274)
19350,-37.772515,122-Glenlyon Rd/Lygon St (Brunswick East),144.971614,1,"6,1",c(321355.510672324, 5817488.50555461)
19351,-37.769649,123-Albert St/Lygon St (Brunswick East),144.972112,1,"6,1",c(321392.467777349, 5817807.47891787)
19352,-37.768077,124-Victoria St/Lygon St (Brunswick East),144.972416,1,"6,1",c(321415.480620921, 5817982.5006278)
19353,-37.766442,125-Blyth St/Lygon St (Brunswick East),144.972722,1,"6,1",c(321438.501733838, 5818164.51643595)
19354,-37.764295,126-Stewart St/Lygon St (Brunswick East),144.973087,1,"6,1",c(321465.462087701, 5818403.44940163)
19355,-37.761887,127-Albion St/Holmes St (Brunswick East),144.974061,1,"6,1",c(321545.488481683, 5818672.51727866)
19356,-37.759264,128-Mitchell St/Holmes St (Brunswick East),144.974519,1,"6,1",c(321579.524953209, 5818964.44789631)
19357,-37.756541,129-Moreland Rd/Nicholson St (Coburg),144.974979,1,1,c(321613.514505828, 5819267.48765456)
19358,-37.756571,129-Moreland Rd/Holmes St (Brunswick),144.974626,1,6,c(321582.473093875, 5819263.47837923)
19359,-37.756058,130-Barrow St/Moreland Rd (Coburg),144.969975,1,6,c(321171.495298652, 5819311.52078749)
19360,-37.755663,131-De Carle St/Moreland Rd (Coburg),144.966354,1,6,c(320851.537770156, 5819348.42348717)
19361,-37.75534,132-Sydney Rd/Moreland Rd (Coburg),144.963854,1,6,c(320630.485033253, 5819379.47431131)
19362,-37.755292,133-Moreland Station/Cameron St (Coburg),144.962119,1,6,c(320477.525254588, 5819381.4787883)
19363,-37.753372,130-The Avenue/Nicholson St (Coburg),144.976189,1,1,c(321712.504457717, 5819621.44156928)
19364,-37.751217,131-Rennie St/Nicholson St (Coburg),144.976679,1,1,c(321750.500108941, 5819861.50031589)
19365,-37.749393,132-Crozier St/Nicholson St (Coburg),144.97699,1,1,c(321773.528033204, 5820064.49623998)
19366,-37.746059,133-Harding St/Nicholson St (Coburg),144.977523,1,1,c(321812.506859512, 5820435.46418797)
19367,-37.744371,134-Merribell Ave/Nicholson St (Coburg),144.977887,1,1,c(321840.528239563, 5820623.47034731)
19368,-37.742861,135-Bell St/Nicholson St (Coburg),144.978132,1,1,c(321858.478050322, 5820791.49548139)
19369,-37.827453,125A-Southbank Tram Depot/Light Rail (South Melbourne),144.953988,1,"12,109",c(319936.465230653, 5811358.42708273)
19370,-37.83024,126-Montague St/Light Rail (South Melbourne),144.948469,1,109,c(319457.480724017, 5811038.50227168)
19371,-37.833208,127-North Port Station/Light Rail (Port Melbourne),144.94349,1,109,c(319026.533037382, 5810699.51174807)
19372,-37.837054,128-Graham St/Light Rail (Port Melbourne),144.93719,1,109,c(318481.497960097, 5810260.50555994)
19374,-37.808435,13-Lansdowne St/Victoria Pde (Fitzroy),144.978344,1,"12,109",c(322034.502241476, 5813515.4638834)
19376,-37.752663,42-Grice Cres/Mt Alexander Rd (Essendon),144.915894,1,59,c(316398.474511793, 5819583.47170411)
19377,-37.809271,16-Wellington St/Victoria Pde (Collingwood),144.986136,1,"12,109",c(322722.518702373, 5813437.51155257)
19379,-37.809727,18-Hoddle St/Victoria Pde (Collingwood),144.990644,1,"12,109",c(323120.47465464, 5813395.45316937)
19381,-37.809694,19-North Richmond Railway Station/Victoria St (Abbotsford),144.992962,1,"12,109",c(323324.469830281, 5813403.50501179)
19382,-37.809994,20-Lennox St/Victoria St (Abbotsford),144.99576,1,"12,109",c(323571.505060781, 5813375.50674432)
19383,-37.81049,21-Church St/Victoria St (Abbotsford),145.000517,1,"12,109",c(323991.477599993, 5813329.43303888)
19384,-37.810829,22-McKay St/Victoria St (Richmond),145.004041,1,"12,109",c(324302.524005516, 5813298.45670726)
19385,-37.811111,23-Flockhart St/Victoria St (Abbotsford),145.006873,1,"12,109",c(324552.487745793, 5813272.48035816)
19386,-37.811441,24-Burnley St/Victoria St (Richmond),145.010385,1,"12,109",c(324862.461667043, 5813242.45934932)
19387,-37.811768,25-River Bvd/Victoria St (Richmond),145.013239,1,109,c(325114.492032342, 5813211.51418971)
19389,-37.812713,27-Findon Cres/Barkers Rd (Kew),145.02062,1,109,c(325766.502485226, 5813120.44501211)
19391,-37.813026,29-High St/Barkers Rd (Kew),145.023179,1,109,c(325992.50346656, 5813090.49046368)
19393,-37.810228,31-Stevenson St/High St (Kew),145.026161,1,"48,109",c(326248.447587889, 5813406.52228303)
19394,-37.807592,32-Kew Junction/High St (Kew),145.028583,1,"48,109",c(326455.506866002, 5813703.51933986)
19395,-37.806814,33-Kew Shopping Centre/High St (Kew),145.030512,1,"48,109",c(326623.504128828, 5813793.43705391)
19396,-37.806887,34-QPO/Cotham Rd (Kew),145.031657,1,109,c(326724.494708081, 5813787.46234117)
19397,-37.807308,35-Charles St/Cotham Rd (Kew),145.035303,1,109,c(327046.477751991, 5813747.50025958)
19398,-37.807622,36-Glenferrie Rd/Cotham Rd (Kew),145.037907,1,109,c(327276.453532948, 5813717.47363698)
19399,-37.808119,37-Belmont Ave/Cotham Rd (Kew),145.042313,1,109,c(327665.512682652, 5813670.4634663)
19400,-37.808529,38-Marshall Ave/Cotham Rd (Kew),145.045835,1,109,c(327976.525353252, 5813631.45460221)
19401,-37.808937,39-Florence Ave/Cotham Rd (Kew),145.049277,1,109,c(328280.493730419, 5813592.51687845)
19402,-37.809376,40-St George's Hospital/Cotham Rd (Kew),145.052911,1,109,c(328601.454694333, 5813550.47530845)
19403,-37.809932,41-Kew Traffic School/Cotham Rd (Kew),145.057668,1,109,c(329021.532540199, 5813497.49421869)
19404,-37.810276,42-Burke Rd/Cotham Rd (Kew),145.060498,1,109,c(329271.463932643, 5813464.50054384)
19405,-37.810787,43-Deepdene Shopping Centre/Whitehorse Rd (Balwyn),145.064722,1,109,c(329644.491050409, 5813415.50679)
19406,-37.811237,44-Deepdene Park/Whitehorse Rd (Balwyn),145.068527,1,109,c(329980.514511072, 5813372.50537143)
19407,-37.811591,45-Hardwicke St/Whitehorse Rd (Balwyn),145.07138,1,109,c(330232.487660488, 5813338.41613205)
19408,-37.812113,46-Balwyn Cinema/Whitehorse Rd (Balwyn),145.075785,1,109,c(330621.466668963, 5813288.48906676)
19409,-37.812769,47-Balwyn Rd/Whitehorse Rd (Balwyn),145.081187,"1,2",109,c(331098.499800672, 5813225.47634511)
19410,-37.813061,48-Balwyn Shopping Centre/Whitehorse Rd (Balwyn),145.083622,"1,2",109,c(331313.526829138, 5813197.4793369)
19411,-37.813552,49-Northcote Ave/Whitehorse Rd (Balwyn),145.087755,"1,2",109,c(331678.49328381, 5813150.44736436)
19412,-37.81403,50-Wharton St/Whitehorse Rd (Surrey Hills),145.091685,"1,2",109,c(332025.519980193, 5813104.48170424)
19413,-37.814405,51-Narrak Rd/Whitehorse Rd (Balwyn),145.094787,"1,2",109,c(332299.45153107, 5813068.44080693)
19414,-37.814946,53-Union Rd/Whitehorse Rd (Balwyn),145.099249,"1,2",109,c(332693.451190282, 5813016.41164008)
19416,-37.815405,54-Inglisby Rd/Whitehorse Rd (Mont Albert),145.103123,"1,2",109,c(333035.539352673, 5812972.41152964)
19417,-37.816164,55-Hood St/Whitehorse Rd (Mont Albert),145.109453,"1,2",109,c(333594.454673078, 5812899.48893629)
19418,-37.816911,56-Elgar Rd/Whitehorse Rd (Box Hill),145.115592,"1,2",109,c(334136.536165696, 5812827.51818236)
19419,-37.817457,57-Nelson Rd/Whitehorse Rd (Box Hill),145.119861,"1,2",109,c(334513.532669815, 5812774.5006512)
19421,-37.837609,61-Elgar Rd/Riversdale Rd (Surrey Hills),145.110372,1,70,c(333723.506168249, 5810521.5028599)
19422,-37.83709,60-Ferndale St/Riversdale Rd (Surrey Hills),145.106658,1,70,c(333395.48627968, 5810572.47511544)
19423,-37.836859,59-Alandale St/Riversdale Rd (Surrey Hills),145.104641,1,70,c(333217.456391377, 5810594.50971755)
19424,-37.836531,58-Wattle Park/Riversdale Rd (Surrey Hills),145.102184,1,70,c(333000.4921095, 5810626.50944485)
19425,-37.836204,57-Glendale St/Riversdale Rd (Surrey Hills),145.100306,1,70,c(332834.503709307, 5810659.43093661)
19426,-37.835897,56-Warrigal Rd/Riversdale Rd (Surrey Hills),145.098053,1,70,c(332635.514897779, 5810689.45906103)
19427,-37.835575,55-Union Rd/Riversdale Rd (Surrey Hills),145.095402,1,70,c(332401.481907442, 5810720.43619589)
19428,-37.835341,54-Through Rd/Riversdale Rd (Surrey Hills),145.093192,1,70,c(332206.456708578, 5810742.43229364)
19429,-37.835088,53-Essex Rd/Riversdale Rd (Surrey Hills),145.090949,1,70,c(332008.504069588, 5810766.47206653)
19430,-37.834754,52-Lockhart St/Riversdale Rd (Camberwell),145.08814,1,70,c(331760.529879229, 5810798.47497197)
19431,-37.834367,51-Highfield Rd/Riversdale Rd (Canterbury),145.084854,1,70,c(331470.453543729, 5810835.49179839)
19432,-37.834119,50-Wattle Valley Rd/Riversdale Rd (Canterbury),145.081202,1,70,c(331148.501519115, 5810856.41769561)
19433,-37.83389,49-Glyndon Rd/Riversdale Rd (Camberwell),145.079333,1,70,c(330983.483205459, 5810878.44235491)
19434,-37.833655,48-Cooloongatta Rd/Riversdale Rd (Camberwell),145.077101,1,70,c(330786.513628706, 5810900.4852599)
19435,-37.83311,47-Willow Gr/Riversdale Rd (Canterbury),145.072399,1,70,c(330371.456756189, 5810952.42378615)
19436,-37.832698,46-Spencer Rd/Riversdale Rd (Canterbury),145.069308,1,70,c(330098.481127054, 5810992.52352596)
19438,-37.832336,44-Derby St/Riversdale Rd (Camberwell),145.065886,1,70,c(329796.468893873, 5811026.45763477)
19439,-37.832062,43-Trafalgar Rd/Riversdale Rd (Camberwell),145.063507,1,70,c(329586.47471704, 5811052.52828985)
19440,-37.831684,42-Fermanagh Rd/Riversdale Rd (Camberwell),145.060199,1,70,c(329294.463942485, 5811088.4300377)
19441,-37.831407,41-Camberwell Market/517 Riversdale Rd (Camberwell),145.057627,1,70,c(329067.476754643, 5811114.45431394)
19442,-37.83127,40-Camberwell Junction/Riversdale Rd (Hawthorn East),145.056426,1,"75,70",c(328961.463103179, 5811127.46496117)
19443,-37.831028,39-Camberwell Tram Depot/Riversdale Rd (Hawthorn East),145.054308,1,"75,70",c(328774.476008875, 5811150.42720416)
19444,-37.83069,38-Hastings Rd/Riversdale Rd (Hawthorn East),145.05134,1,"75,70",c(328512.490615322, 5811182.49123971)
19445,-37.830259,37-Tooronga Rd/Riversdale Rd (Hawthorn East),145.047636,1,"75,70",c(328185.492749702, 5811223.50900262)
19446,-37.829776,36-Auburn Rd/Riversdale Rd (Hawthorn East),145.043502,1,"75,70",c(327820.538618303, 5811269.49374749)
19447,-37.829537,35-Robinson Rd/Riversdale Rd (Hawthorn),145.041554,1,"75,70",c(327648.537365213, 5811292.41508969)
19448,-37.829179,34-Kooyongkoot Rd/Riversdale Rd (Hawthorn),145.038473,1,"75,70",c(327376.513217748, 5811326.45104028)
19449,-37.828971,33-Berkeley St/Riversdale Rd (Hawthorn),145.036797,1,"75,70",c(327228.534532801, 5811346.43135616)
19450,-37.828635,32-Glenferrie Rd/Riversdale Rd (Hawthorn),145.033954,1,"75,70",c(326977.501082704, 5811378.44774485)
19451,-37.828351,31-Fordholm Rd/Riversdale Rd (Hawthorn),145.031507,1,"75,70",c(326761.472335623, 5811405.429522)
19452,-37.828076,30-Through St/Riversdale Rd (Hawthorn),145.029083,1,"75,70",c(326547.491041025, 5811431.43979309)
19454,-37.827623,29-Power St/Riversdale Rd (Hawthorn),145.025709,1,"75,70",c(326249.472001758, 5811475.44126015)
19456,-37.82642,18-Yarra Bvd/Swan St (Burnley),145.020617,1,70,c(325798.450309313, 5811599.43870813)
19457,-37.827248,17-Madden Gr/Swan St (Burnley),145.016846,1,70,c(325468.489730089, 5811500.51798592)
19458,-37.827198,16-Park Gr/Swan St (Burnley),145.01228,1,70,c(325066.501154421, 5811497.5270697)
19459,-37.826901,15-Stawell St/Swan St (Richmond),145.009607,1,70,c(324830.531728113, 5811525.47299177)
19460,-37.826593,14-Burnley St/Swan St (Richmond),145.006877,1,70,c(324589.527773732, 5811554.52359163)
19461,-37.826392,13-Edinburgh St/Swan St (Richmond),145.00511,1,70,c(324433.504142057, 5811573.5131004)
19462,-37.826102,12-Coppin St/Swan St (Richmond),145.002345,1,70,c(324189.465858302, 5811600.48903004)
19463,-37.82561,11-Church St/Swan St (Richmond),144.99778,1,70,c(323786.481041603, 5811646.47252387)
19464,-37.82538,10-Swan Street Shopping Centre/Swan St (Richmond),144.9959,1,70,c(323620.465996007, 5811668.44987397)
19465,-37.825092,9-Lennox St/Swan St (Richmond),144.993284,1,70,c(323389.512104251, 5811695.46340454)
19466,-37.824532,8-Richmond Station/Swan St (Cremorne),144.988436,1,70,c(322961.478679703, 5811748.42253269)
19467,-37.750227,43-Brewster St/Mt Alexander Rd (Essendon),144.914226,1,59,c(316245.496483413, 5819850.5027909)
19468,-37.748101,44-Thorn St/Mt Alexander Rd (Essendon),144.912754,1,59,c(316110.532277058, 5820083.53129593)
19469,-37.746486,45-Glass St/Mt Alexander Rd (Essendon),144.91163,1,59,c(316007.501323877, 5820260.52677085)
19470,-37.743952,47-Mt Alexander Rd/Keilor Rd (Essendon),144.908944,1,59,c(315764.515103305, 5820536.43176468)
19471,-37.742688,48-Service St/Keilor Rd (Essendon North),144.905768,1,59,c(315481.524261342, 5820670.42885251)
19472,-37.741501,49-Essendon North PS/Keilor Rd (Essendon North),144.902885,1,59,c(315224.538497732, 5820796.45654067)
19473,-37.740032,50-Cooper St/Keilor Rd (Essendon North),144.899351,1,59,c(314909.45463985, 5820952.47737415)
19475,-37.735258,53-Keilor Rd/Matthews Ave (Niddrie),144.889365,1,59,c(314017.522674422, 5821462.43214206)
19477,-37.732355,54-Fullarton Rd/Matthews Ave (Niddrie),144.889833,1,59,c(314051.50211888, 5821785.4914049)
19478,-37.729912,55-Cameron St/Matthews Ave (Airport West),144.890254,1,59,c(314082.510947798, 5822057.42400337)
19479,-37.727324,56-Earl St/Matthews Ave (Airport West),144.890668,1,59,c(314112.525468004, 5822345.42096647)
19480,-37.723065,57-Hawker St/Matthews Ave (Airport West),144.89139,1,59,c(314165.494720528, 5822819.45618118)
19481,-37.718373,58-Marshall Rd/Matthews Ave (Airport West),144.892079,1,59,c(314214.502600744, 5823341.48248789)
19482,-37.71384,59-Airport West/Matthews Ave (Airport West),144.890562,1,59,c(314069.445600417, 5823841.4715658)
19489,-37.799305,1-Melbourne University/Swanston St (Carlton),144.964192,1,"16,3/3a,5,6,64,67,72,1",c(320766.501819491, 5814501.52367378)
19491,-37.80237,3-Lincoln Square/Swanston St (Carlton),144.963687,1,"16,3/3a,5,6,64,67,72,1",c(320729.44183757, 5814160.44969326)
19492,-37.805694,4-Queensberry St/Swanston St (Carlton),144.963108,1,"16,3/3a,5,6,64,67,72,1",c(320686.515433694, 5813790.48119621)
19494,-37.808139,7-RMIT University/Swanston St (Melbourne City),144.96329,1,"16,3/3a,5,6,64,67,72,1",c(320708.468080691, 5813519.52555805)
19495,-37.810382,8-Melbourne Central Station/Swanston St (Melbourne City),144.964274,1,"16,3/3a,5,6,64,67,72,1",c(320800.512649973, 5813272.50885859)
19497,-37.813199,10-Bourke Street Mall/Swanston St (Melbourne City),144.965582,1,"16,3/3a,5,6,64,67,72,1",c(320922.46240147, 5812962.42568477)
19498,-37.816378,11-City Square/Swanston St (Melbourne City),144.967017,1,"16,3/3a,5,6,64,67,72,1",c(321056.464198409, 5812612.41683637)
19499,-37.818476,13-Federation Square/Swanston St (Melbourne City),144.967982,1,"16,3/3a,5,6,64,67,72,1",c(321146.491165705, 5812381.45974056)
19500,-37.821846,14-Arts Precinct/St Kilda Rd (Southbank),144.969514,1,"16,3/3a,5,6,64,67,72,1",c(321289.460277055, 5812010.44063722)
19502,-37.824169,17-Grant St-Police Memorial/St Kilda Rd (Southbank),144.970473,1,"3/3a,5,6,64,67,72,16",c(321379.479380126, 5811754.50217523)
19504,-37.828799,19-Shrine of Remembrance/St Kilda Rd (Melbourne City),144.971369,1,"3/3a,5,6,64,67,72,16",c(321469.509688536, 5811242.4366461)
19505,-37.831521,20-Park Street/St Kilda Rd (Melbourne City),144.971385,1,"3/3a,5,6,64,67,72,16",c(321477.497372321, 5810940.42190871)
19528,-37.835761,22-Toorak Rd/St Kilda Rd (Melbourne City),144.975348,1,"3/3a,5,6,64,67,72,16",c(321836.478897729, 5810477.49602882)
19539,-37.838855,23-Arthur St/St Kilda Rd (Melbourne City),144.97657,1,"3/3a,5,6,64,67,72,16",c(321951.44957865, 5810136.49520512)
19560,-37.841159,24-Leopold St/St Kilda Rd (South Melbourne),144.977405,1,"3/3a,5,6,64,67,72,16",c(322030.488428992, 5809882.42148563)
19561,-37.844523,25-Commercial Rd/St Kilda Rd (South Melbourne),144.978631,1,"3/3a,5,6,64,67,72,16",c(322146.441675721, 5809511.46487475)
19562,-37.847552,26-Moubray St/St Kilda Rd (South Melbourne),144.979719,1,"3/3a,5,6,64,67,16",c(322249.480473512, 5809177.41628042)
19563,-37.849864,27-High St/St Kilda Rd (South Melbourne),144.980554,1,"3/3a,5,6,64,67,16",c(322328.490463894, 5808922.4603106)
19565,-37.853002,29-Union St/St Kilda Rd (St Kilda),144.981707,1,"3/3a,5,64,67,16",c(322437.479330081, 5808576.43869075)
19566,-37.855296,30-St Kilda Junction/St Kilda Rd (St Kilda),144.982531,1,"3/3a,5,64,67,16",c(322515.485732654, 5808323.44799546)
19567,-37.856246,31-Queens Way/Queens Way (St Kilda),144.987495,1,"64,5",c(322954.51010089, 5808227.45518838)
19568,-37.855031,30-St Kilda Junction/St Kilda Rd (St Kilda),144.982345,1,"3/3a,5,64,67,16",c(322498.47470423, 5808352.49567724)
19569,-37.852483,29-Union St/St Kilda Rd (St Kilda),144.981437,1,"3/3a,5,64,67,16",c(322412.477525155, 5808633.5198742)
19571,-37.849918,27-Lorne St/St Kilda Rd (Melbourne City),144.980541,1,"3/3a,5,6,64,67,16",c(322327.479763572, 5808916.44344907)
19572,-37.847895,26-Beatrice St/St Kilda Rd (Melbourne City),144.979755,1,"3/3a,5,6,64,67,16",c(322253.471947913, 5809139.42445837)
19573,-37.844013,25-Commercial Rd/St Kilda Rd (Melbourne City),144.978339,1,"3/3a,5,6,64,67,72,16",c(322119.524694349, 5809567.50469001)
19574,-37.841483,24-Leopold St/St Kilda Rd (Melbourne City),144.977419,1,"3/3a,5,6,64,67,72,16",c(322032.502882872, 5809846.49516396)
19575,-37.839298,23-Arthur St/St Kilda Rd (Melbourne City),144.976615,1,"3/3a,5,6,64,67,72,16",c(321956.47505149, 5810087.42517966)
19589,-37.802942,13-Curzon St/Queensberry St (North Melbourne),144.948362,1,57,c(319381.539239855, 5814067.45608355)
19590,-37.803224,12-North Melbourne Town Hall/Errol St (North Melbourne),144.949535,1,57,c(319485.493059671, 5814038.43380715)
19591,-37.799826,14-Royal Melbourne Hospital/Flemington Rd (North Melbourne),144.955205,1,"59,58",c(319976.459353763, 5814426.43133654)
19592,-37.796758,16-Harker St/Flemington Rd (North Melbourne),144.95136,1,"59,58",c(319630.46395609, 5814759.46129047)
19594,-37.794141,19-Royal Childrens Hospital/Flemington Rd (North Melbourne),144.94806,1,"59,58",c(319333.501914274, 5815043.48623102)
19595,-37.790474,20-Melrose St/Flemington Rd (North Melbourne),144.94346,1,"59,57",c(318919.481775861, 5815441.49068709)
19597,-37.788054,22-Flemington Bridge Station/Flemington Rd (North Melbourne),144.940609,1,59,c(318662.517743325, 5815704.5019149)
19598,-37.785843,23-Flemington Community Centre/Mt Alexander Rd (Flemington),144.938853,1,59,c(318502.460684189, 5815946.4424685)
19599,-37.784218,24-Mooltan St/Mt Alexander Rd (Flemington),144.937173,1,59,c(318350.51898921, 5816123.50280599)
19600,-37.782565,25-Mount Alexander College/Mt Alexander Rd (Travancore),144.933869,1,59,c(318055.51097332, 5816300.4973219)
19601,-37.781436,26-Wellington St/Mt Alexander Rd (Flemington),144.932663,1,59,c(317946.52689555, 5816423.43544685)
19602,-37.779808,27-Essendon Tram Depot/Mt Alexander Rd (Ascot Vale),144.931312,1,59,c(317823.536698681, 5816601.45714372)
19603,-37.777699,28-Middle St/Mt Alexander Rd (Ascot Vale),144.92977,1,59,c(317682.522988078, 5816832.47459247)
19604,-37.775748,29-Warrick St/Mt Alexander Rd (Ascot Vale),144.928473,1,59,c(317563.51534904, 5817046.44188447)
19605,-37.773008,30-Maribyrnong Rd/Mt Alexander Rd (Ascot Vale),144.926949,1,59,c(317422.520632849, 5817347.50887487)
19606,-37.770686,31-Montgomery St/Mt Alexander Rd (Moonee Ponds),144.926071,1,59,c(317339.465831493, 5817603.45699023)
19608,-37.766653,32-Moonee Ponds Junction/Pascoe Vale Rd (Moonee Ponds),144.92481,1,"82,59",c(317218.484038809, 5818048.51813364)
19609,-37.764005,34-Moonee Valley Civic Centre/Pascoe Vale Rd (Moonee Ponds),144.925361,1,59,c(317260.484858519, 5818343.43048722)
19623,-37.762702,35-Queens Park/Pascoe Vale Rd (Moonee Ponds),144.92559,1,59,c(317277.447228735, 5818488.46879395)
19624,-37.759863,36-Murray St/Pascoe Vale Rd (Moonee Ponds),144.926078,1,59,c(317313.465049273, 5818804.46038844)
19625,-37.758255,37-Buckley St/Pascoe Vale Rd (Moonee Ponds),144.92635,1,59,c(317333.45390308, 5818983.4178155)
19626,-37.756113,38-Fletcher St/Pascoe Vale Rd (Essendon),144.926036,1,59,c(317300.52732998, 5819220.49345931)
19627,-37.755693,39-Hoddle St/Fletcher St (Essendon),144.923164,1,59,c(317046.457334534, 5819261.48782002)
19628,-37.755456,40-Nicholson St/Fletcher St (Essendon),144.920958,1,59,c(316851.544038581, 5819283.46617627)
19657,-37.754879,41-Fletcher St/Napier St (Essendon),144.917387,1,59,c(316535.485476966, 5819340.49293089)
19658,-37.752496,42-Shamrock St/Mt Alexander Rd (Essendon),144.915649,1,59,c(316376.461547525, 5819601.51619188)
19659,-37.750662,43-Thistle St/Mt Alexander Rd (Essendon),144.914361,1,59,c(316258.467374115, 5819802.5011305)
19660,-37.748355,44-Thorn St/Mt Alexander Rd (Essendon),144.912803,1,59,c(316115.475246883, 5820055.43442487)
19661,-37.746384,45-Leake St/Mt Alexander Rd (Essendon),144.911463,1,59,c(315992.530217125, 5820271.51339868)
19662,-37.74477,46-Lincoln Rd/Mt Alexander Rd (Essendon),144.910351,1,59,c(315890.543738637, 5820448.43104065)
19663,-37.744162,47-Mt Alexander Rd/Keilor Rd (Essendon),144.909097,1,59,c(315778.517874075, 5820513.42356792)
19664,-37.742821,48-Service St/Keilor Rd (Essendon),144.905696,1,59,c(315475.510147222, 5820655.52614152)
19665,-37.741683,49-Essendon North Primary School/Keilor Rd (Essendon North),144.90297,1,59,c(315232.477689433, 5820776.43074528)
19666,-37.740204,50-Cooper St/Keilor Rd (Essendon),144.899415,1,59,c(314915.52987603, 5820933.51909641)
19667,-37.738772,51-Bradshaw St/Keilor Rd (Essendon),144.895926,1,59,c(314604.491912371, 5821085.5130324)
19669,-37.736552,53A-Matthews Ave/Keilor Rd (Essendon),144.890168,1,59,c(314091.54068374, 5821320.43588933)
19670,-37.734959,53-Keilor Rd/Matthews Ave (Niddrie),144.889316,1,59,c(314012.459600352, 5821495.51148161)
19671,-37.732371,54-Fullarton Rd/Matthews Ave (Airport West),144.889696,1,59,c(314039.485904864, 5821783.44186402)
19672,-37.729963,55-Cameron St/Matthews Ave (Airport West),144.890128,1,59,c(314071.533834079, 5822051.51106361)
19673,-37.727205,56-Earl St/Matthews Ave (Airport West),144.890603,1,59,c(314106.484937123, 5822358.49426921)
19674,-37.723117,57-Hawker St/Matthews Ave (Airport West),144.891286,1,59,c(314156.454326505, 5822813.48713703)
19675,-37.718416,58-Marshall Rd/Matthews Ave (Airport West),144.891975,1,59,c(314205.439293036, 5823336.50222929)
19676,-37.835476,22-Toorak Rd/St Kilda Rd (Melbourne City),144.975038,1,"3/3a,5,58,6,64,67,72,16",c(321808.514656942, 5810508.52318747)
19678,-37.832057,20-Park Street/St Kilda Rd (Melbourne City),144.971654,1,"3/3a,5,6,64,67,72,16",c(321502.457583363, 5810881.45370545)
19679,-37.828931,19-Shrine of Remembrance/St Kilda Rd (Melbourne City),144.971229,1,"3/3a,5,6,64,67,72,16",c(321457.502384035, 5811227.5180032)
19681,-37.824634,17-Grant St-Police Memorial/St Kilda Rd (Southbank),144.970801,1,"3/3a,5,6,64,67,72,16",c(321409.467711937, 5811703.52683772)
19684,-37.821517,14-Arts Precinct/St Kilda Rd (Southbank),144.969239,1,"16,3/3a,5,6,64,67,72,1",c(321264.488451434, 5812046.41728145)
19685,-37.818065,13-Federation Square/Swanston St (Melbourne City),144.967675,1,"16,3/3a,5,6,64,67,72,1",c(321118.467460779, 5812426.48204068)
19686,-37.81573,11-City Square/Swanston St (Melbourne City),144.966569,1,"16,3/3a,5,6,64,67,72,1",c(321015.475811901, 5812683.46477175)
19687,-37.812759,10-Bourke Street Mall/Swanston St (Melbourne City),144.965185,1,"16,3/3a,5,6,64,67,72,1",c(320886.442485338, 5813010.49051925)
19689,-37.809889,8-Melbourne Central Station/Swanston St (Melbourne City),144.96389,1,"16,3/3a,5,6,64,67,72,1",c(320765.503426522, 5813326.48037848)
6044,-37.780247,27-Westgarth St/High St (Northcote),144.996848,1,86,c(323596.531288375, 5816678.44240493)
6045,-37.78357,26-Walker St/High St (Northcote),144.996167,1,86,c(323544.479745416, 5816308.42279628)
6046,-37.78565,25-Clifton Hill Interchange/Queens Pde (Clifton Hill),144.994521,1,86,c(323404.446848239, 5816074.49723916)
6047,-37.788364,24-Michael St/Queens Pde (Clifton Hill),144.991416,1,86,c(323137.473164816, 5815767.47193628)
6048,-37.789481,23-Wellington St/Queens Pde (Clifton Hill),144.988751,1,86,c(322905.477548518, 5815638.47872662)
6049,-37.790467,22-Smith St/Queens Pde (Clifton Hill),144.986351,1,86,c(322696.476680611, 5815524.51164596)
6050,-37.794158,21-Alexandra Pde/Smith St (Fitzroy),144.985025,1,86,c(322588.549403468, 5815112.42302081)
6051,-37.796781,20-Rose St/Smith St (Collingwood),144.984567,1,86,c(322554.47206736, 5814820.49480245)
6052,-37.799081,19-Johnston St/Smith St (Fitzroy),144.984164,1,86,c(322524.506455948, 5814564.50453629)
6053,-37.801579,18-Hodgson St/Smith St (Fitzroy),144.983744,1,86,c(322493.495648191, 5814286.52003799)
6054,-37.80361,17-Charles St/Smith St (Fitzroy),144.983382,1,86,c(322466.504132483, 5814060.45816558)
6056,-37.806256,15-Smith St/Gertrude St (Fitzroy),144.982663,1,86,c(322409.514614984, 5813765.47603628)
6057,-37.80591,14-Napier St/Gertrude St (Fitzroy),144.979287,1,86,c(322111.48076858, 5813797.443246)
6058,-37.805655,13-Brunswick St/Gertrude St (Fitzroy),144.977057,1,86,c(321914.516818313, 5813821.49723233)
6059,-37.801894,12-Moor St/Nicholson St (Fitzroy),144.97424,1,96,c(321657.453166183, 5814233.46700648)
6061,-37.798407,13-Johnston St/Nicholson St (Fitzroy),144.974813,1,96,c(321699.528545806, 5814621.49382743)
6062,-37.795254,14-Rose St/Nicholson St (Fitzroy),144.975387,1,96,c(321742.475723283, 5814972.46009126)
6063,-37.792019,15-Alexandra Pde/Nicholson St (Fitzroy North),144.97593,1,96,c(321782.535896032, 5815332.47553)
6064,-37.788812,16-Freeman St/Nicholson St (Fitzroy North),144.976539,1,96,c(321828.438122712, 5815689.49947214)
6066,-37.785587,17-Reid St/Nicholson St (Fitzroy North),144.977138,1,96,c(321873.446317454, 5816048.50169573)
6067,-37.783072,18-Scotchmer St/Nicholson St (Fitzroy North),144.977604,1,96,c(321908.464780459, 5816328.4737007)
6068,-37.779937,19-Holden St/Nicholson St (Fitzroy North),144.978167,1,96,c(321950.527558166, 5816677.41945946)
6069,-37.776782,20-Miller St/Nicholson St (Fitzroy North),144.978673,1,96,c(321987.505380972, 5817028.48276776)
6070,-37.773188,21-Glenlyon Rd/Nicholson St (Fitzroy North),144.979282,1,96,c(322032.53534298, 5817428.44826101)
6071,-37.770422,22-Albert St/Nicholson St (Brunswick East),144.979834,1,96,c(322074.514177886, 5817736.42503917)
6103,-37.751983,42-Dundas St/Plenty Rd (Preston),145.002002,1,86,c(323983.453728127, 5819824.45792535)
6104,-37.75455,41-Collins St/High St (Thornbury),145.001366,1,86,c(323933.493719187, 5819538.41708653)
6105,-37.756698,40-Mansfield St/High St (Thornbury),145.001047,1,86,c(323910.48648523, 5819299.46151224)
6106,-37.75836,39-Gooch St/High St (Thornbury),145.000741,1,86,c(323887.469951186, 5819114.46891667)
6107,-37.759447,38-Clarendon St/High St (Thornbury),145.000553,1,86,c(323873.49326663, 5818993.49431577)
6108,-37.761236,37-Woolton Ave/High St (Thornbury),145.000255,1,86,c(323851.478186733, 5818794.41500325)
6109,-37.76315,36-Darebin Rd/High St (Thornbury),144.999954,1,86,c(323829.507510821, 5818581.45841518)
6110,-37.765558,35-Dennis St/High St (Northcote),144.999526,1,86,c(323797.516397845, 5818313.45451393)
6111,-37.767473,34-McCutcheon St/High St (Northcote),144.999281,1,86,c(323780.49869177, 5818100.49351661)
6112,-37.769193,33-Separation St/High St (Northcote),144.999178,1,86,c(323775.481454669, 5817909.44051228)
6113,-37.771392,32-Mitchell St/High St (Northcote),144.998665,1,86,c(323735.516642138, 5817664.46517996)
6114,-37.775002,31-Northcote Town Hall/High St (Northcote),144.99792,1,86,c(323678.487251832, 5817262.47851313)
6115,-37.777166,30-Clarke St/High St (Northcote),144.997442,1,86,c(323641.522522958, 5817021.44301983)
6118,-37.780876,27-Westgarth St/High St (Northcote),144.996728,1,86,c(323587.468979084, 5816608.41805016)
6119,-37.783894,26-Walker St/High St (Northcote),144.996181,1,86,c(323546.455247508, 5816272.495931)
6120,-37.786317,25-Clifton Hill Interchange/Queens Pde (Clifton Hill),144.993992,1,86,c(323359.462338603, 5815999.4852449)
6121,-37.788939,24-Gold St/Queens Pde (Fitzroy North),144.990265,1,86,c(323037.491865263, 5815701.48716402)
6122,-37.789735,23-Wellington St/Queens Pde (Clifton Hill),144.988347,1,86,c(322870.48262052, 5815609.5295909)
6123,-37.790636,22-Smith St/Queens Pde (Clifton Hill),144.98621,1,86,c(322684.453707736, 5815505.48853206)
6124,-37.793621,21-Alexandra Pde/Smith St (Clifton Hill),144.985278,1,86,c(322609.518247958, 5815172.49456751)
6125,-37.796694,20-Keele St/Smith St (Fitzroy),144.984751,1,86,c(322570.462220054, 5814830.49147022)
6126,-37.798842,19-Johnston St/Smith St (Fitzroy),144.984375,1,86,c(322542.509355573, 5814591.43042633)
6127,-37.801394,18-Hodgson St/Smith St (Fitzroy),144.983965,1,86,c(322512.514795961, 5814307.46304235)
6128,-37.803461,17-Charles St/Smith St (Fitzroy),144.983613,1,86,c(322486.464647503, 5814077.42496658)
6129,-37.804862,16-Peel St/Smith St (Collingwood),144.983348,1,86,c(322466.491439045, 5813921.46533557)
6130,-37.806236,15-Gertrude St/Smith St (Fitzroy),144.983095,1,86,c(322447.500694951, 5813768.51425834)
6131,-37.80609,14-Napier St/Gertrude St (Fitzroy),144.979805,1,86,c(322157.521875023, 5813778.45570872)
6132,-37.805823,13-Brunswick St/Gertrude St (Fitzroy),144.977381,1,86,c(321943.446151302, 5813803.46922744)
6133,-37.801587,12-Moor St/Nicholson St (Fitzroy),144.974237,1,96,c(321656.461044557, 5814267.52688016)
6135,-37.797616,13-Johnston St/Nicholson St (Carlton),144.974948,1,96,c(321709.513311762, 5814709.52639764)
6136,-37.795244,14-Rose St/Nicholson St (Carlton),144.975319,1,96,c(321736.460458684, 5814973.43884022)
6137,-37.791722,15-Alexandra Pde/Nicholson St (Carlton),144.975938,1,96,c(321782.519579664, 5815365.44740939)
6138,-37.788515,16-Freeman St/Nicholson St (Fitzroy North),144.976548,1,96,c(321828.517211111, 5815722.47338745)
6140,-37.785254,17-Reid St/Nicholson St (Carlton North),144.977148,1,96,c(321873.534366574, 5816085.47240179)
6141,-37.782739,18-Scotchmer St/Nicholson St (Carlton North),144.977625,1,96,c(321909.504249625, 5816365.46496403)
6142,-37.779334,19-Brunswick Rd/Nicholson St (Fitzroy),144.978229,1,96,c(321954.533979376, 5816744.44950094)
6143,-37.776781,20-Miller St/Nicholson St (Brunswick East),144.978627,1,96,c(321983.444434162, 5817028.50487457)
6144,-37.77414,21-Glenlyon Rd/Nicholson St (Brunswick East),144.979085,1,96,c(322017.473802029, 5817322.43227139)
6145,-37.770258,22-Albert St/Nicholson St (Brunswick East),144.979736,1,96,c(322065.495625747, 5817754.44474246)
6147,-37.766969,23-Blyth St/Nicholson St (Brunswick East),144.980302,1,96,c(322107.461238405, 5818120.48129105)
7354,-37.863572,48-Dixon St/Wattletree Rd (Malvern),145.037084,1,5,c(327334.523672773, 5807507.4434882)
8345,-37.863148,47-Cabrini Hospital/Wattletree Rd (Malvern),145.033855,1,5,c(327049.450556413, 5807548.52104539)
9156,-37.862828,46-Soudan St/Wattletree Rd (Malvern),145.031386,1,5,c(326831.506065119, 5807579.44531486)
940,-37.861592,43-Egerton Rd/Wattletree Rd (Armadale),145.0227,1,5,c(326064.453156643, 5807700.43938163)
946,-37.861893,44-Duncraig Ave/Wattletree Rd (Armadale),145.025091,1,5,c(326275.519114352, 5807671.49773969)
947,-37.862278,45-Glenferrie Rd/Wattletree Rd (Malvern),145.028127,1,5,c(326543.503047267, 5807634.42173907)
950,-37.862658,46-Nicholls St/Wattletree Rd (Malvern),145.030958,1,5,c(326793.451711068, 5807597.51610745)
955,-37.86296,47-Cabrini Hospital/Wattletree Rd (Malvern),145.033394,1,5,c(327008.472979301, 5807568.51948642)
968,-37.863393,48-Dixon St/Wattletree Rd (Malvern),145.036634,1,5,c(327294.517979427, 5807526.4746086)
980,-37.863827,49-Tooronga Rd/Wattletree Rd (Malvern East),145.039987,1,5,c(327590.506209763, 5807484.51889388)
992,-37.77008,41-Maribyrnong Park/Maribyrnong Rd (Ascot Vale),144.902055,1,"82,57",c(315222.518684882, 5817623.50645563)
4138,-37.855757,140-Fraser St/Park St (St Kilda West),144.967425,1,12,c(321187.526152173, 5808243.45634895)
4139,-37.854788,139-Langridge St/Patterson St (Middle Park),144.965587,1,12,c(321023.455869882, 5808347.45263619)
4140,-37.853075,138-Armstrong St/Danks St (Middle Park),144.962452,1,12,c(320743.487414437, 5808531.5283411)
4141,-37.805855,13-Gertrude St/Brunswick St (Fitzroy),144.977119,1,11,c(321920.449063024, 5813799.41434705)
4142,-37.802835,14-Hanover St/Brunswick St (Fitzroy),144.977611,1,11,c(321956.522703073, 5814135.47319923)
4143,-37.800445,15-Bell St/Brunswick St (Fitzroy),144.978039,1,11,c(321988.470912545, 5814401.50118204)
4144,-37.798531,16-Johnston St/Brunswick St (Fitzroy),144.978364,1,11,c(322012.498973054, 5814614.5020851)
4145,-37.795629,17-Leicester St/Brunswick St (Fitzroy),144.978852,1,11,c(322048.485296961, 5814937.45894898)
4146,-37.793625,18-Alexandra Pde/Brunswick St (Fitzroy),144.97919,1,11,c(322073.442814841, 5815160.47100497)
4147,-37.790803,19-Newry St/Brunswick St (Fitzroy North),144.979665,1,11,c(322108.517963294, 5815474.5248548)
4148,-37.788297,20-Fitzroy Bowls Club/Brunswick St (Fitzroy North),144.980096,1,11,c(322140.455251604, 5815753.420092)
4149,-37.785426,21-Alfred Cres/St Georges Rd (Fitzroy North),144.981912,1,11,c(322293.485268992, 5816075.45588747)
4150,-37.78341,22-Scotchmer St/St Georges Rd (Fitzroy North),144.983647,1,11,c(322441.472563037, 5816302.45971558)
4151,-37.781509,23-Park St/St Georges Rd (Fitzroy North),144.985277,1,11,c(322580.485106624, 5816516.50775554)
4152,-37.780071,24-Holden St/St Georges Rd (Fitzroy North),144.98652,1,11,c(322686.495979338, 5816678.42600248)
4153,-37.778019,25-Miller St/St Georges Rd (Fitzroy North),144.988301,1,11,c(322838.47820696, 5816909.50385793)
4154,-37.775926,26-Clarke St/St Georges Rd (Northcote),144.989755,1,11,c(322961.517146891, 5817144.51218912)
4155,-37.773815,27-Westbourne Gr/St Georges Rd (Northcote),144.990152,1,11,c(322991.455448084, 5817379.50575836)
4156,-37.771571,28-Sumner Ave/St Georges Rd (Northcote),144.990633,1,11,c(323028.466900006, 5817629.42840104)
4157,-37.768553,29-Arthurton Rd/St Georges Rd (Northcote),144.991237,1,11,c(323074.481314445, 5817965.46052121)
4158,-37.765294,30-Gladstone Ave/St Georges Rd (Northcote),144.99195,1,11,c(323129.535018311, 5818328.44312868)
4159,-37.762448,31-Bird Ave/St Georges Rd (Northcote),144.992594,1,11,c(323179.489502566, 5818645.46475402)
4160,-37.758954,32-Normanby Ave/St Georges Rd (Thornbury),144.993256,1,11,c(323229.459740992, 5819034.43426641)
4161,-37.755414,33-Hutton St/St Georges Rd (Thornbury),144.993931,1,11,c(323280.500403799, 5819428.52153895)
4162,-37.752033,34-Miller St/St Georges Rd (Preston),144.994885,1,11,c(323356.507029908, 5819805.49829278)
4163,-37.751441,36-Bracken Ave/Miller St (Thornbury),144.991314,1,11,c(323040.484968881, 5819864.43194264)
4164,-37.750312,37-Miller St/Gilbert Rd (Preston),144.988042,1,11,c(322749.50236914, 5819983.52123643)
4165,-37.748083,38-Oakover Rd/Gilbert Rd (Preston),144.988375,1,11,c(322773.523610297, 5820231.49570036)
4166,-37.745639,39-Latona Ave/Gilbert Rd (Preston),144.988804,1,11,c(322805.503617118, 5820503.50052521)
4167,-37.744075,40-Bell St/Gilbert Rd (Preston),144.989028,1,11,c(322821.503619006, 5820677.4754142)
4168,-37.741316,41-Bruce St/Gilbert Rd (Preston),144.9895,1,11,c(322856.511942532, 5820984.5146794)
4169,-37.739096,42-Cramer St/Gilbert Rd (Preston),144.989832,1,11,c(322880.467890208, 5821231.48749055)
4170,-37.736715,43-Murray Rd/Gilbert Rd (Preston),144.990214,1,11,c(322908.451858426, 5821496.42113963)
4171,-37.73454,44-Cooper St/Gilbert Rd (Preston),144.990591,1,11,c(322936.51692199, 5821738.47592458)
4172,-37.732994,45-Jacka St/Gilbert Rd (Preston),144.990848,1,11,c(322955.485811464, 5821910.5153225)
4173,-37.730056,46-McNamara St/Gilbert Rd (Preston),144.991359,1,11,c(322993.507983739, 5822237.50026245)
4174,-37.678984,71-RMIT/Plenty Rd (Bundoora),145.069502,"1,2",86,c(329763.540819465, 5828049.49839515)
4175,-37.681356,70-Clements Dr/Plenty Rd (Bundoora),145.06902,"1,2",86,c(329726.452856976, 5827785.42578635)
4176,-37.688022,69-Taunton Dr/Plenty Rd (Bundoora),145.066659,"1,2",86,c(329533.513604267, 5827041.45455571)
4177,-37.691686,68-Greenhills Rd/Plenty Rd (Bundoora),145.063139,"1,2",86,c(329231.516898627, 5826628.47781983)
4178,-37.695674,67-Bundoora Square SC/Plenty Rd (Bundoora),145.059576,"1,2",86,c(328926.519136556, 5826179.45871102)
4179,-37.69796,66-Settlement Rd/Plenty Rd (Bundoora),145.058847,"1,2",86,c(328867.498892067, 5825924.46646689)
4180,-37.700121,65-Grimshaw St/Plenty Rd (Bundoora),145.058178,"1,2",86,c(328813.463999377, 5825683.45424782)
4181,-37.703671,64-Mount Cooper Dr/Plenty Rd (Bundoora),145.055964,"1,2",86,c(328626.439969653, 5825285.4816397)
4182,-37.707385,63-Greenwood Dr/Plenty Rd (Bundoora),145.052192,"1,2",86,c(328302.486825715, 5824866.46290682)
4183,-37.710531,62-Metropolitan Fire Brigade/Plenty Rd (Bundoora),145.048968,"1,2",86,c(328025.524187849, 5824511.45186864)
4185,-37.712488,61-Bundoora Park/Plenty Rd (Bundoora),145.046353,"1,2",86,c(327799.527852298, 5824289.49506864)
4186,-37.716447,60-La Trobe University/Plenty Rd (Bundoora),145.043254,"1,2",86,c(327535.53690858, 5823844.48659972)
4187,-37.718982,59-Preston Cemetery/Plenty Rd (Kingsbury),145.039625,"1,2",86,c(327221.526851317, 5823556.49925414)
4188,-37.720008,58-Browning St/Plenty Rd (Kingsbury),145.036841,"1,2",86,c(326978.530927734, 5823437.50884076)
4189,-37.722689,57-Reservoir District Secondary College/Plenty Rd (Reservoir),145.030065,"1,2",86,c(326387.539410093, 5823127.46841577)
4190,-37.723986,56-Loddon Ave/Plenty Rd (Reservoir),145.027852,"1,2",86,c(326195.492489872, 5822979.44226796)
4191,-37.725436,55-Boldrewood Pde/Plenty Rd (Reservoir),145.022957,"1,2",86,c(325767.459050407, 5822809.4451856)
4192,-37.727333,54-Wilkinson St/Plenty Rd (Reservoir),145.020014,"1,2",86,c(325512.525255206, 5822593.462001)
4193,-37.729133,53-Ethel Gr/Plenty Rd (Reservoir),145.017208,"1,2",86,c(325269.464902659, 5822388.49222039)
4195,-37.73447,51-Wood St/Plenty Rd (Preston),145.013548,1,86,c(324959.459357775, 5821789.43775361)
4196,-37.736839,50-Sylvester Gr/Plenty Rd (Preston),145.012418,1,86,c(324865.456441892, 5821524.45179323)
4197,-37.738894,49-Murray Rd/Plenty Rd (Preston),145.011365,1,86,c(324777.50843752, 5821294.45255625)
4198,-37.741153,48-Gower St/Plenty Rd (Preston),145.009591,1,86,c(324626.506148436, 5821040.46070518)
4199,-37.743207,47-David St/Plenty Rd (Preston),145.007958,1,86,c(324487.46376519, 5820809.47029462)
4201,-37.74576,45-Bell St/Plenty Rd (Preston),145.005994,1,86,c(324320.457890242, 5820522.49920556)
4202,-37.747061,44-Seymour St/Plenty Rd (Preston),145.00512,1,86,c(324246.517976705, 5820376.48838018)
4203,-37.749182,43-Raglan St/Plenty Rd (Preston),145.003701,1,86,c(324126.498924657, 5820138.46249024)
4204,-37.752462,42-Miller St/High St (Thornbury),145.001536,1,86,c(323943.514323831, 5819770.43077513)
4205,-37.754358,41-Blythe St/High St (Thornbury),145.001235,1,86,c(323921.493611106, 5819559.47226067)
4206,-37.756721,40-Mansfield St/High St (Thornbury),145.000831,1,86,c(323891.511337594, 5819296.50817588)
4323,-37.830605,127-York St/Clarendon St (South Melbourne),144.959594,1,12,c(320437.522859459, 5811019.44866602)
4324,-37.82806,126-City Rd/Clarendon St (South Melbourne),144.958346,1,12,c(320321.49753649, 5811299.45949758)
4331,-37.832794,128-Dorcas St/Clarendon St (South Melbourne),144.960613,1,12,c(320532.495972937, 5810778.50411733)
4332,-37.835029,129-Park St/Clarendon St (South Melbourne),144.961665,1,12,c(320630.521913825, 5810532.5195621)
4333,-37.838943,130-Albert Rd/Clarendon St (South Melbourne),144.963364,1,12,c(320789.507576418, 5810101.45813665)
4334,-37.840577,131-Melbourne Sports & Aquatic Centre/Albert Rd (Albert Park),144.961455,1,12,c(320625.462433587, 5809916.46764189)
43472,-37.819681,D14-Southern Cross Station/Collins St (Docklands),144.952215,1,"48,11",c(319761.501402971, 5812217.4324992)
43473,-37.820266,D15-Batman's Hill/Collins St (Docklands),144.950131,1,"48,11",c(319579.476034668, 5812148.49299622)
43474,-37.821527,D17-Merchant St/Collins St (Docklands),144.945416,1,"48,11",c(319167.522397235, 5811999.44603348)
43475,-37.820797,D16-Harbour Esp/Collins St (Docklands),144.948038,1,"48,11",c(319396.530336946, 5812085.52416929)
43476,-37.820074,D15-Batman's Hill/Collins St (Docklands),144.950477,1,"48,11",c(319609.461667367, 5812170.47352326)
43477,-37.819471,D14-Southern Cross Station/Collins St (Docklands),144.952596,1,"48,11",c(319794.517851858, 5812241.47711118)
43480,-37.820862,D16-Harbour Esp/Collins St (Docklands),144.948138,1,"48,11",c(319405.498241334, 5812078.50710429)
4384,-37.842283,132-Canterbury Rd/Albert Rd (Albert Park),144.959522,1,12,c(320459.508421845, 5809723.44824416)
4440,-37.8445,133-Canterbury Rd/Mills St (Middle Park),144.960063,1,12,c(320512.499140072, 5809478.479062)
4441,-37.845664,134-Carter St/Mills St (Middle Park),144.959099,1,12,c(320430.487639264, 5809347.45282477)
4442,-37.847227,135-Richardson St/Mills St (Middle Park),144.957806,1,12,c(320320.493541644, 5809171.52981842)
4443,-37.849324,136-Danks St/Mills St (Middle Park),144.956077,1,12,c(320173.441385868, 5808935.50225055)
4444,-37.851013,137-Harold St/Danks St (Middle Park),144.958872,1,12,c(320423.47669147, 5808753.45777536)
4445,-37.859477,142-Mary St/Park St (St Kilda West),144.973074,1,12,c(321693.486035489, 5807841.46258541)
4446,-37.85718,141-Cowderoy St/Park St (St Kilda West),144.9705,1,12,c(321461.486234625, 5808091.4391756)
4447,-37.855427,140-Fraser St/Patterson St (Middle Park),144.967127,1,12,c(321160.502788035, 5808279.49750143)
4448,-37.854468,139-Langridge St/Patterson St (Middle Park),144.965301,1,12,c(320997.532352442, 5808382.41818669)
4449,-37.852701,138-Armstrong St/Danks St (Middle Park),144.962167,1,12,c(320717.494956963, 5808572.47666306)
4450,-37.805597,13-Gertrude St/Brunswick St (Fitzroy),144.977319,1,11,c(321937.451702074, 5813828.42835901)
4451,-37.802703,14-King William St/Brunswick St (Fitzroy),144.977807,1,11,c(321973.480195134, 5814150.49786999)
4452,-37.800538,15-St David St/Brunswick St (Fitzroy),144.978184,1,11,c(322001.468428249, 5814391.45111687)
4453,-37.798166,16-Johnston St/Brunswick St (Fitzroy),144.97859,1,11,c(322031.52927922, 5814655.43961352)
4454,-37.795461,17-Leicester St/Brunswick St (Fitzroy),144.979038,1,11,c(322064.470959532, 5814956.44893618)
4455,-37.792927,18-Alexandra Pde/Brunswick St (Fitzroy North),144.979459,1,11,c(322095.448376726, 5815238.44139419)
4456,-37.790537,19-Newry St/Brunswick St (Fitzroy North),144.979888,1,11,c(322127.503402223, 5815504.46029148)
4457,-37.788174,20-Fitzroy Bowls Club/Brunswick St (Fitzroy North),144.980293,1,11,c(322157.501618038, 5815767.44690715)
4458,-37.785385,21-Alfred Cres/St Georges Rd (Fitzroy North),144.982152,1,11,c(322314.533467307, 5816080.46642213)
4460,-37.781735,23-Park St/St Georges Rd (Fitzroy North),144.985294,1,11,c(322582.515944119, 5816491.45284773)
4461,-37.779879,24-Holden St/St Georges Rd (Fitzroy North),144.986888,1,11,c(322718.472444735, 5816700.43649325)
4462,-37.777952,25-Miller St/St Georges Rd (Fitzroy North),144.988553,1,11,c(322860.513043771, 5816917.42161932)
4463,-37.775739,26-Clarke St/St Georges Rd (Northcote),144.989862,1,11,c(322970.519906832, 5817165.46803277)
4464,-37.773665,27-Westbourne Gr/St Georges Rd (Northcote),144.990293,1,11,c(323003.527446868, 5817396.42102017)
4465,-37.771473,28-Sumner Ave/St Georges Rd (Northcote),144.990727,1,11,c(323036.509433968, 5817640.48192682)
4466,-37.768145,29-Arthurton Rd/St Georges Rd (Northcote),144.9916,1,11,c(323105.473684505, 5818011.41745821)
4468,-37.765198,30-Gladstone Ave/St Georges Rd (Northcote),144.992157,1,11,c(323147.540866144, 5818339.49060297)
4469,-37.762628,31-Gadd St/St Georges Rd (Northcote),144.992567,1,11,c(323177.539727264, 5818625.44003958)
4470,-37.758462,32-Normanby Ave/St Georges Rd (Thornbury),144.993508,1,11,c(323250.489217959, 5819089.49853852)
4471,-37.755121,33-Hutton St/St Georges Rd (Thornbury),144.994188,1,11,c(323302.448765616, 5819461.52425925)
4472,-37.752268,34-Miller St/St Georges Rd (Preston),144.994924,1,11,c(323360.52324096, 5819779.49683519)
4473,-37.751263,36-Devon St/Miller St (Preston),144.990944,1,11,c(323007.454260576, 5819883.48565211)
4474,-37.751644,35-St Georges Rd/Miller St (Preston),144.994793,1,11,c(323347.493650562, 5819848.48791667)
4475,-37.750602,37-Miller St/Gilbert Rd (Preston),144.988125,1,11,c(322757.521442974, 5819951.501285)
4476,-37.74823,38-Oakover Rd/Gilbert Rd (Preston),144.988541,1,11,c(322788.497285522, 5820215.49165785)
4477,-37.745624,39-Latona Ave/Gilbert Rd (Preston),144.988963,1,11,c(322819.456639078, 5820505.4690249)
4478,-37.743538,40-Bell St/Gilbert Rd (Preston),144.989247,1,11,c(322839.509565935, 5820737.48121015)
4479,-37.74096,41-Bruce St/Gilbert Rd (Preston),144.989714,1,11,c(322874.538069662, 5821024.42801779)
4480,-37.73891,42-Cramer St/Gilbert Rd (Preston),144.99003,1,11,c(322897.472430581, 5821252.50500613)
4481,-37.736466,43-Murray Rd/Gilbert Rd (Preston),144.990414,1,11,c(322925.497499339, 5821524.42342342)
4482,-37.734606,44-Cooper St/Gilbert Rd (Preston),144.990737,1,11,c(322949.522922309, 5821731.4314904)
4483,-37.732764,45-Jacka St/Gilbert Rd (Preston),144.991059,1,11,c(322973.529378949, 5821936.44066289)
4484,-37.729186,47-West Preston/Gilbert Rd (Preston),144.991587,1,11,c(323011.519913569, 5822334.46348662)
4485,-37.682318,70-Janefield Dr/Plenty Rd (Bundoora),145.068927,"1,2",86,c(329720.461872469, 5827678.51024213)
4486,-37.688157,69-Taunton Dr/Plenty Rd (Bundoora),145.066678,"1,2",86,c(329535.473476565, 5827026.5087078)
4487,-37.691927,68-Greenhills Rd/Plenty Rd (Bundoora),145.063019,"1,2",86,c(329221.499346271, 5826601.51508719)
4488,-37.695908,67-Bundoora Square SC/Plenty Rd (Bundoora),145.059581,"1,2",86,c(328927.501404012, 5826153.5026836)
4489,-37.698266,66-Settlement Rd/Plenty Rd (Bundoora),145.058816,"1,2",86,c(328865.472878418, 5825890.45534088)
4490,-37.699817,65-Grimshaw St/Plenty Rd (Bundoora),145.058345,"1,2",86,c(328827.492177979, 5825717.48445114)
4491,-37.703904,64-Mount Cooper Dr/Plenty Rd (Bundoora),145.055856,"1,2",86,c(328617.455154089, 5825259.42855117)
4492,-37.70807,63-Greenwood Dr/Plenty Rd (Bundoora),145.05163,"1,2",86,c(328254.495332463, 5824789.41315743)
4493,-37.710551,62-Metropolitan Fire Brigade/Plenty Rd (Bundoora),145.049103,"1,2",86,c(328037.471224277, 5824509.48279183)
4494,-37.713152,61-Bundoora Park/Plenty Rd (Bundoora),145.04562,"1,2",86,c(327736.453959646, 5824214.46497663)
4495,-37.717367,60-La Trobe University/Plenty Rd (Bundoora),145.042764,"1,2",86,c(327494.482746756, 5823741.48994877)
4496,-37.719039,59-Preston Cemetery/Plenty Rd (Kingsbury),145.039759,"1,2",86,c(327233.463530776, 5823550.42485539)
4497,-37.720064,58-Browning St/Plenty Rd (Kingsbury),145.036964,"1,2",86,c(326989.513389852, 5823431.52468423)
4498,-37.722639,57-Reservoir District Secondary College/Plenty Rd (Reservoir),145.030316,"1,2",86,c(326409.538715661, 5823133.48641425)
4499,-37.724522,56-Loddon Ave/Plenty Rd (Reservoir),145.027032,"1,2",86,c(326124.497091728, 5822918.4388823)
4500,-37.725568,55-Albert St/Plenty Rd (Reservoir),145.022806,"1,2",86,c(325754.473969531, 5822794.51383822)
4501,-37.727706,54-Wilkinson St/Plenty Rd (Reservoir),145.019675,"1,2",86,c(325483.544409984, 5822551.44532154)
4502,-37.72912,53-Ethel Gr/Plenty Rd (Reservoir),145.017515,"1,2",86,c(325296.497974653, 5822390.51359837)
4503,-37.730994,52-Tyler St/Plenty Rd (Preston),145.014765,"1,2",86,c(325058.540972881, 5822177.42222306)
4504,-37.734321,51-Wood St/Plenty Rd (Preston),145.013825,1,86,c(324983.536960087, 5821806.49432092)
4505,-37.736868,50-Sylvester Gr/Plenty Rd (Preston),145.012565,1,86,c(324878.500046187, 5821521.51163886)
4506,-37.73871,49-Murray Rd/Plenty Rd (Preston),145.011676,1,86,c(324804.483864066, 5821315.4479592)
4507,-37.740774,48-Gower St/Plenty Rd (Preston),145.010089,1,86,c(324669.516181606, 5821083.44882219)
4508,-37.742882,47-David St/Plenty Rd (Preston),145.008444,1,86,c(324529.520762199, 5820846.44419368)
4510,-37.745337,45-Bell St/Plenty Rd (Preston),145.006528,1,86,c(324366.499737278, 5820570.43954742)
4511,-37.746877,44-Osborne Gr/Plenty Rd (Preston),145.00542,1,86,c(324272.505504871, 5820397.47472623)
4512,-37.748882,43-Raglan St/Plenty Rd (Preston),145.004095,1,86,c(324160.521183384, 5820172.49953819)
46517,-37.865359,48-Hawthorn Rd/Dandenong Rd (Caulfield North),145.025419,1,64,c(326312.510583423, 5807287.50156147)
47493,-37.820801,D18-Bourke St/Collins St (Docklands),144.942039,1,"48,11",c(318868.476989021, 5812073.46630888)
4945,-37.769318,43-Van Ness Ave/Raleigh Rd (Maribyrnong),144.895673,1,"82,57",c(314658.47667018, 5817695.4344147)
49999,-37.835752,22-Toorak Rd/St Kilda Rd (Melbourne City),144.97536,1,58,c(321837.502758047, 5810478.51739692)
52112,-37.83762,123-Fawkner Park/Toorak Rd (South Yarra),144.980706,1,58,c(322312.468455464, 5810281.41683453)
52113,-37.837634,123-Fawkner Park/Toorak Rd (South Yarra),144.981047,1,58,c(322342.536248175, 5810280.50839015)
6032,-37.758321,39-Ballantyne St/High St (Thornbury),145.000549,1,86,c(323870.473273242, 5819118.43186091)
6034,-37.761529,37-Woolton Ave/High St (Thornbury),145.000043,1,86,c(323833.493789463, 5818761.50849446)
6035,-37.763326,36-Darebin Rd/High St (Thornbury),144.999688,1,86,c(323806.489065297, 5818561.43294863)
6036,-37.765734,35-Dennis St/High St (Northcote),144.99926,1,86,c(323774.499038031, 5818293.41893195)
6037,-37.767614,34-Bent St/High St (Northcote),144.999096,1,86,c(323764.533917136, 5818084.49540661)
6038,-37.769413,33-Arthurton Rd/High St (Northcote),144.9989,1,86,c(323751.523201975, 5817884.50884442)
6039,-37.771138,32-Mitchell St/High St (Northcote),144.998569,1,86,c(323726.478581525, 5817692.46749225)
6040,-37.774712,31-Northcote Town Hall/High St (Northcote),144.997837,1,86,c(323670.473566102, 5817294.49927346)
6041,-37.77669,30-Clarke St/High St (Northcote),144.997534,1,86,c(323648.508183676, 5817074.43731113)
